LocationID,Latitude,Longitude,Location,City,Country
70172,33.675556,-117.868056,"PO Box 4653, Stockton, California, 95204"," Santa Ana, CA ", United States 
5047,49.435,-2.600278,"157 Adams St., Stockton, California, 95204"," Guernsey, United Kingdom ", United Kingdom 
110028,45.866111,-95.394444,"1950 W Freemont, Stockton, California, 95203"," Alexandria, MN ", United States 
24026,35.542222,-120.522778,"102 S. State St., Ukiah, California, 95482"," Paso Robles, CA ", United States 
119299,34.688611,-87.92,"13011 Newport Ave. #100, Tustin, California, 92780"," Cherokee, AL ", United States 
111157,38.533889,-106.933056,"1404 4th St., Berkeley, California, 94608"," Gunnison, CO ", United States 
82113,40.799722,-90.438611,"1404 Fourth St., Berkeley, California, 94710"," Abingdon, IL ", United States 
96462,46.8,-88.36,"1920 Shattuck Ave, Berkeley, California, 94704"," Crystal Falls, MI ", United States 
79485,28.958056,-89.258889,"65 N. San Pedro, San Jose, California, 95110"," Venice, LA ", United States 
65725,32.557222,-97.485555,"954 Villa St., Mountain View, California, 94041"," Crowley, TX ", United States 
34991,-37.829723,144.896389,"661 Howard St., San Francisco, California, 94105"," Westgate Bridge, Australia ", Australia 
51412,29.935,-95.639444,"610 3rd St., Santa Rosa, California, 95404"," Houston, TX ", United States 
98628,33.572778,-117.234444,"229 W. Montecito, Santa Barbara, California, 93101"," Murrieta, CA ", United States 
83502,44.737222,-85.5275,"1000 Great Highway, San Francisco, California, 94121"," Traverse City, MI ", United States 
95789,  ,  ,"416 N. Salsipuedes St., Santa Barbara, California, 93103"," Teterboro, NJ ", United States 
100580,  ,  ,"721 Grand Ave., San Diego, California, 92109"," Teterboro, NJ ", United States 
71142,27.390555,-82.552778,"101 E. Imperial Hwy., Brea, California, 92821"," Sarasota, FL ", United States 
127461,39.203889,-106.868056,"6827 Airoso Ave, San Diego, California, 92120"," Aspen, CO ", United States 
70354,40.5875,-75.019167,"2001 2nd St., Davis, California, 95616"," Pittstown, NJ ", United States 
66246,10.121667,-66.771667,"1375 Exposition Blvd., Sacramento, California, 95815"," Ocumare del Tuy, Venezuela ", Venezuela 
39076,65.765278,-147.390555,"15045 River Rd., Guerneville, California, 95446"," North Pole, AK ", United States 
22434,33.871945,-117.979723,"1999 Citracado Pkwy., Escondido, California, 92029"," Fullerton, CA ", United States 
43510,42.328056,-72.611389,"333 California Dr, Burlingame, California, 94010"," Northampton, MA ", United States 
114090,21.318611,-157.9225,"4175 Campus Dr., Irvine, California, 92612"," Honolulu, HI ", United States 
105420,34.056111,-117.601111,"26731 Aliso Creek Rd. Ste. C, Aliso Viejo, California, 92656"," Ontario, CA ", United States 
102956,34.485556,-93.104722,"821 L. Street, Modesto, California, 95354"," Hot Springs Vlg, AR ", United States 
18510,30.4,-86.471389,"1195-A Evans Ave., San Francisco, California, 94124"," Destin, FL ", United States 
14925,  ,  ,"PO Box 820, King City, California, 93930"," Boquete, Panama ", Panama 
118319,39.472778,-120.3325,"200 E. Campbell Ave., Campbell, California, 95008"," Truckee, CA ", United States 
75460,61.95,-151.196666,"135 N. Highway 101, Solana Beach, California, 92075"," Skwentna, AK ", United States 
48492,43.386666,-71.233333,"19040 Standard Rd. , Sonora, California, 95370"," Alton, NH ", United States 
27809,35.933889,-110.133611,"2050 Hwy. 4 , Arnold, California, 95223"," Holbrook, AZ ", United States 
70594,35.500833,-108.783889,"PO Box 2224, Arnold, California, 95223"," Gallup, NM ", United States 
30089,33.63,-85.151667,"3229 Durfee Ave., El Monte, California, 91732"," Carrollton, GA ", United States 
58779,30.525,-98.358333,"1300 Central Ave., McKinleyville, California, 95519"," Austin, TX ", United States 
79659,34.898889,-120.4575,"3020 n St. Helena Hwy. Ste. A, St. Helena, California, 94574"," Santa Maria, CA ", United States 
110293,29.959167,-81.339722,"1075 E. 20th St., Chico, California, 95928"," ST. Augustine, FL ", United States 
48014,16.25,-61.516667,"21 Kersting Court, Sierra Madre, California, 91024"," Pointe-A-Pitre, Guadeloupe ", Guadeloupe 
96517,38.288889,-104.484444,"912 Cole Street, #338, San Francisco, California, 94117"," Pueblo, CO ", United States 
64685,29.268334,-98.335,"777 East Olive Ave., Fresno, California, 93728"," ELmendorf, TX ", United States 
64138,33.3575,-108.673889,"1188 E. Champlain Dr., Fresno, California, 93728"," Glenwood, NM ", United States 
60373,40.134444,-75.276389,"519 Seabright Ave. Suite 107, Santa Cruz, California, 95062"," Blue Bell, PA ", United States 
14849,44.216389,-90.428334,"4250 Lone Tree Way, Antioch, California, 94509"," Warrens, WI ", United States 
28319,32.930556,-97.411111,"402 Ingalls St. #27, Santa Cruz, California, 95060"," Fort Worth, TX ", United States 
103012,-78.016945,-154.966945,"150 Dubois St. , Santa Cruz, California, 95060"," McMurdo Station, Antarctica ", Antarctica 
124114,31.938611,-111.113611,"501 State St., Santa Barbara, California, 93101"," Sahuarita, AZ ", United States 
107794,36.787777,-97.742777,"331 W. 6th St., San Pedro, California, 90731"," Medford, OK ", United States 
81983,25.550556,-78.298333,"1080 W. Old San Marcos Blvd., San Marcos, California, 92069"," Chub Cay, Bahamas ", Bahamas 
53164,39.736389,-89.804444,"155 Columbus Ave., San Francisco, California, 94133"," Springfield, IL ", United States 
82042,29.061667,-82.376389,"10450 Friar's Road - Suite L, San Diego, California, 92120"," Dunnellon, FL ", United States 
72127,  ,  ,"131 E. 1st St., Cloverdale, California, 95425"," Gurupi, Brazil ", Brazil 
113046,40.354444,-79.930278,"725 4th Street, Santa Rosa, California, 95404"," Pittsburgh, PA ", United States 
1050,33.427223,-112.018334,"2004 Capital Ave., Sacramento, California, 95814"," Phoenix, AZ ", United States 
54886,33.568611,-86.050556,"673 Union St. (@ Powell), San Francisco, California, 94133"," Talladega, AL ", United States 
125918,60.795,-161.888333,"1875 S. Bascom Ave. #700, Campbell, California, 95008"," Bethel, AK ", United States 
7467,40.639722,73.778889,"8980 Villa La Jolla Dr., La Jolla, California, 92037"," Jamaica, NY ", United States 
78972,  ,  ,"401 G Street, San Diego, California, 92101"," Natal, Brazil ", Brazil 
126625,46.383333,4.966667,"1 Pine Ave., Long Beach, California, 90802"," Chevroux, France ", France 
114501,61.581667,-159.543055,"3397 7th St., Riverside, California, 92501"," Aniak, AK ", United States 
114813,-36.143333,-71.826667,"545 Downtown Plaza, Ste. 1115 , Sacramento, California, 95814"," Parral, Chile ", Chile 
32167,45.291389,-108.925556,"31872 Marcasite Ln, Castaic, California, 91384"," Bridger, MT ", United States 
68001,41.978611,-87.904722,"1814 S. Catalina Ave., Redondo Beach, California, 90277"," Chicago, IL ", United States 
117052,  ,  ,"7326 East Hwy 140, Merced, California, 95340"," Providence, RI ", United States 
8661,  ,  ,"1266 Sartori Ave., Torrance, California, 90501"," Cairo, Egypt ", Egypt 
57165,39.7375,-99.3175,"26741 Portola Pkwy, Foothill Ranch, California, 92610"," Phillipsburg, KS ", United States 
78610,32.286945,-106.789445,"901 Gilman St., Berkeley, California, 94710"," Mesilla, NM ", United States 
51058,27.930556,-93.763889,"1410 Locust Street, Walnut Creek, California, 94596"," Hig Island A595, GM ", United States 
92027,38.601944,-86.14,"1029 K St., Sacramento, California, 95814"," Salem, IN ", United States 
115534,36.776111,-119.718056,"901 Gilman St, Berkeley, California, 94710"," Fresno, CA ", United States 
9261,40.658333,-73.786666,"155 Mata Way #104, San Marcos, California, 92069"," New York, NY ", United States 
61033,41.978611,-87.904722,"571 Carlsbad Village Dr., Carlsbad, California, 92008"," Chicago, IL ", United States 
75930,32.8325,-116.975834,"135 n hwy 101, Solana Beach, California, 92075"," El Cajon, CA ", United States 
112142,40.658333,-73.786666,"301 N. El Camino Real, San Clemente, California, 92672"," New York, NY ", United States 
24518,24.783333,-81.137777,"2 Portola Place, Monterey, California, 93940"," Marathon, FL ", United States 
112524,40.121667,-76.295833,"906 Washington St., Oakland, California, 94607"," Lancaster, PA ", United States 
101639,25.041666,-80.488333,"11837 Foothill Blvd., Ste A., Rancho Cucamonga, California, 91730"," Key Largo, FL ", United States 
85018,-1.534444,-75.417223,"10155 Rancho Carmel Dr., San Diego, California, 92123"," Curaray-Loreto, Peru ", Peru 
106922,32.224445,-81.6975,"23641 Via Linda, Mission Viejo, California, 92691"," Hilton Head Isl, SC ", United States 
32564,34.745277,-87.610278,"305 Encinitas Blvd., Encinitas, California, 92024"," Muscle Shoals, AL ", United States 
92242,35.764722,-80.953889,"425 S. Melrose Dr., Vista, California, 92083"," Statesville, NC ", United States 
73302,28,-82.158611,"41301 Margarita Dr., Temecula, California, 92591"," Plant City, FL ", United States 
42267,17.205556,-62.59,"9828 Mission Gorge Rd., Santee, California, 92071"," Charlestown, St Kitts And Nevis ", St Kitts And Nevis 
121358,38.1125,-113.001111,"18810 Soledad Canyon Rd., Santa Clarita, California, 91351"," Minersville, UT ", United States 
65655,41.344166,-82.1775,"1500 East Village Way, Orange, California, 92865"," Elyria, OH ", United States 
88062,45.113889,-113.884722,"2245 Fenton Pkwy. #108, San Diego, California, 92108"," Salmon, ID ", United States 
91330,34.259722,-79.020834,"19461 Main St., Huntington Beach, California, 92648"," Fair Bluff, NC ", United States 
22031,50.401389,30.400556,"200 E. Via Rancho Pkwy. Suite 201, Escondido, California, 92025"," Kyiv, Ukraine ", Ukraine 
27921,38.624723,-77.753056,"12840 Carmel Country Rd., Del Mar, California, 92130"," Warrenton, VA ", United States 
51947,9.906667,-67.355,"2363 California Ave. #105, Corona, California, 92881"," Guario, Venezuela ", Venezuela 
40017,26.347222,-80.315278,"3800 Oceanic Dr., Oceanside, California, 92056"," Parkland, FL ", United States 
76392,37.952222,-85.235833,"237 Ocean Ave., Laguna Beach, California, 92651"," Bloomfield, KY ", United States 
118486,44.926111,-89.626389,"455 N. Main St., Fort Bragg, California, 95437"," Wausau, WI ", United States 
6012,42.663611,-85.346111,"2920 Newport Blvd., Newport Beach, California, 92663"," Hastings, MI ", United States 
30183,33.716945,-85.820834,"10755-F Scripps Poway Pkwy, #205, San Diego, California, 92131"," White Plains, AL ", United States 
41652,47.619723,-117.533611,"1250 Lincoln Ave., Calistoga, California, 94515"," Spokane, WA ", United States 
15138,30.501111,-84.080278,"360 College Ave., Weed, California, 96094"," Tallahassee, FL ", United States 
123589,26.347222,-80.315278,"15 Rowland Way, Novato, California, 94945"," Parkland, FL ", United States 
114534,40.6,-116.866667,"2060 Eloise Ave., S Lake Tahoe, California, 96150"," Battle Mountain, NV ", United States 
93076,33.627223,-85.531389,"21167 Calistoga St., Middletown, California, 95461"," Woodland, AL ", United States 
96963,47.067778,-122.101111,"280 Harbor St., Morro Bay, California, 93442"," Orting, WA ", United States 
85494,29.053333,-80.942777,"P.O. Box 316, Fulton, California, 95439"," New Smyrna Beac, FL ", United States 
72989,36.374167,-121.414167,"4353 La Jolla Village Dr, San Diego, California, 92122"," Soledad, CA ", United States 
42357,32.436666,-111.029445,"15801 E. 1st St. , Irwindale, California, 91706"," Tucson, AZ ", United States 
23040,33.3525,-117.250556,"1600 Airport Rd, Ukiah, California, 95482"," Fallbrook, CA ", United States 
65420,  ,  ,"13351 Hwy. 101 S., Hopland, California, 95449"," Arteaga, Mexico ", Mexico 
65045,39.788333,-82.940277,"711 Pleasant Grove Blvd, Roseville, California, 95661"," Columbus, OH ", United States 
37373,33.481389,-82.040833,"1809 Larkspur Landing Circle, Larkspur, California, 94939"," Augusta, GA ", United States 
44405,38.508333,-87.608333,"10737 Meadow Glen Way E, Escondido, California, 92026"," Hazelton, IN ", United States 
16653,44.796111,-111.624723,"18 Main St., Mammoth Lakes, California, 93546"," Ennis, MT ", United States 
71655,36.732223,-119.820278,"300 N Main St., Corona, California, 92882"," Fresno, CA ", United States 
77591,29.406944,-82.269723,"830 Main St., Pleasanton, California, 94566"," Gainesville, FL ", United States 
4585,39.675556,-75.612222,"1398 Haight St., San Francisco, California, 94117"," New Castle, DE ", United States 
108347,31.856389,-89.239166,"195 Taylor Way, Blue Lake, California, 95525"," STRINGER, MS ", United States 
23400,60.809722,-148.555278,"123 W 3rd St, Eureka, California, 95501"," Whittier, AK ", United States 
31010,39.175278,-76.668334,"130-G N. Santa Cruz Ave., Los Gatos, California, 95030"," Baltimore, MD ", United States 
57513,39.175278,-76.668334,"105 School St., Lodi, California, 95240"," Baltimore, MD ", United States 
20979,47.774167,-116.819445,"317 Leidesdorf St., Folsom, California, 95630"," Coeur d'Alene, ID ", United States 
95841,28.300556,-80.721389,"95 Linden St. Ste. 8, Oakland, California, 94607"," Rockledge, FL ", United States 
114684,39.168334,-77.165,"13200 Kirkham Way #105, Poway, California, 92064"," Gaithersburg, MD ", United States 
111667,25.641944,-80.426389,"2911 Main St., Santa Monica, California, 90405"," Miami, FL ", United States 
20101,35.3075,-82.430556,"6720 Schirra Ct., Bakersfield, California, 93313"," Hendersonville, NC ", United States 
63212,33.422778,-86.936111,"1245 Puerto del Sol, San Clemente, California, 92673"," Talladega, AL ", United States 
8256,  ,  ,"1322 Ross St., Petaluma, California, 94954"," Isparta, Turkey ", Turkey 
56161,34.144444,-96.811389,"4353 La Jolla Village Dr., La Jolla, California, 92037"," Madill, OK ", United States 
121196,60.085555,-174.296666,"7536 Fay Ave., La Jolla, California, 92037"," Seward, AK ", United States 
23788,36.603889,-117.159167,"901-A S. Coast Dr., Costa Mesa, California, 92626"," Death Valley, CA ", United States 
129579,38.006667,-88.934444,"5985 Sante Fe St., San Diego, California, 92109"," Benton, IL ", United States 
127516,  ,  ,"9675 Scranton Rd., Sorrento Mesa, California, 92121"," Jagel, Germany ", Germany 
18012,40.275834,-79.404722,"1000 Universal Center Dr., Universal City, California, 91608"," Latrobe, PA ", United States 
45561,26.526945,-81.783889,"5801 Armada Drive, Carlsbad, California, 92008"," Fort Myers, FL ", United States 
5228,33.175278,-97.828334,"1044 Wall St., La Jolla, California, 92037"," Bridgeport, TX ", United States 
18311,61.571667,-149.540277,"1157 Columbia St., San Diego, California, 92101"," Wasilla, AK ", United States 
59891,28.289722,-81.436944,"2785 Kurtz, San Diego, California, 92110"," Orlando, FL ", United States 
60651,34.618889,-97.800278,"1725 S Douglass Rd. Ste. C, Anaheim, California, 92806"," Marlow, OK ", United States 
51013,32.868889,-92.533611,"11641 Rancho Road, Adelanto, California, 92301"," Farmerville, LA ", United States 
91746,42.905,-106.457778,"39176 Argonaut Way, Fremont, California, 94538"," Casper, WY ", United States 
4233,36.048611,-95.981111,"2380 Larsen Dr., Camino, California, 95709"," Tulsa, OK ", United States 
14187,42.466389,-90.169445,"3658 Monterey Blvd.`, Oakland, California, 94619"," Apple River, IL ", United States 
19669,34.645,-106.833611,"5049 Sixth St., Carpinteria, California, 93013"," Belen, NM ", United States 
31147,27.071389,-82.440277,"765-A Center Blvd., Fairfax, California, 94930"," Venice, FL ", United States 
128842,55.851389,37.050833,"1710 Palmyrita Ave., Ste 11, Riverside, California, 92507"," Moscow, Russia ", Russia 
27562,87.145833,-37.6825,"2565 N. Hwy. 14, Inyokern, California, 93527"," Owensboro, KY ", United States 
775,44.318611,-93.301944,"201 Main St. #E, Huntington Beach, California, 92648"," Faribault, MN ", United States 
14070,30.335,-81.508611,"856 10th St., Arcata, California, 95521"," Jacksonville, FL ", United States 
106007,33.434444,-112.011389,"470 Market Place, San Ramon, California, 94583"," Phoenix, AZ ", United States 
116004,25.647777,-80.432778,"3015 Hopyard Rd. Suite E, Pleasanton, California, 94588"," Miami, FL ", United States 
68886,46.926945,-122.465556,"6300 Folsom Blvd., Sacramento, California, 95819"," Yelm, WA ", United States 
72413,33.460833,-111.728334,"4531 La Brea St., Oxnard, California, 93035"," Mesa, AZ ", United States 
73604,36.88,-76.214167,"6980 Marketplace Dr, Goleta, California, 93117"," Suffolk, VA ", United States 
48415,32.760556,-96.534166,"6452 Happy Valley Rd, Somerset, California, 95684"," Mesquite, TX ", United States 
105708,32.656389,-114.605833,"649 3/4 Santa Clara Ave, Venice, California, 90291"," Yuma, AZ ", United States 
65579,38.9625,-121.068056,"1710 Sessums Drive, Redlands, California, 92374"," Auburn, CA ", United States 
73058,  ,  ,"PO Box 879, El Granada , California, 94018"," Nice, France ", France 
65585,39.485,-74.738333,"1430 Vantage Ct. Suite 104A, Vista, California, 92083"," Hamilton, NJ ", United States 
8346,42.481945,-114.471111,"12763 Encanto Way, Redding, California, 96003"," Twin Falls, ID ", United States 
79678,41.491389,-74.168889,"21119 Superior St., Chatsworth, California, 91311"," New Windsor, NY ", United States 
112483,  ,  ,"33 E. San Fernando St., San Jose, California, 95113"," Jakarta, Indonesia ", Indonesia 
31698,45.305556,-122.918056,"357 E Taylor St, San Jose, California, 95112"," Newberg, OR ", United States 
74030,33.128056,-117.113333,"2 Harrison St., San Francisco, California, 94105"," Carlsbad, CA ", United States 
124931,47.269167,-122.451389,"640 Emerson St., Palo Alto, California, 94301"," Tacoma, WA ", United States 
73924,47.269167,-122.451389,"24032 El Toro Rd., Laguna Hills, California"," Tacoma, WA ", United States 
76073,42.228889,-75.978889,"5010 Mission Center Rd., San Diego, California, 92108"," Maine, NY ", United States 
104623,33.039166,-116.915,"1623 W. Katella, Orange, California"," Ramona, CA ", United States 
58523,32.672223,-115.562222,"41 Hugus Alley, Pasadena, California, 91103"," Calexico, CA ", United States 
121929,36.316667,-87.916667,"145 S. San Fernando Rd., Burbank, California, 91502"," McKinnon, TN ", United States 
30704,63.018611,-154.358611,"5660 Vineyard Ln., Placerville, California, 95667"," Nikolai, AK ", United States 
58896,37.380556,-120.568056,"1170 Pinecroft Rd., Colfax, California, 95713"," Atwater, CA ", United States 
26920,35.653333,-95.356667,"620 ""F"" St., Fresno, California, 93706"," Muskogee, OK ", United States 
13884,-38.828056,145.778611,"620 McMurray Rd., Buellton, California, 93427"," Inverloch, Australia ", Australia 
87681,32.482778,-81.736944,"1400 Ramada Dr., Paso Robles, California, 93446"," Statesboro, GA ", United States 
81719,33.191111,-95.978334,"111 S. Murphy Ave., Sunnyvale, California, 94086"," Greenville, TX ", United States 
85554,  ,  ,"7696 Miramar Rd., San Diego, California, 92126"," Roissy, France, France ", France 
12645,43.157778,-93.331389,"1829 Arnold Way Ste. 1001, Alpine, California, 91901"," Hampton, IA ", United States 
101275,38.083889,-95.634166,"11197 Brockway Rd., Ste 1, Truckee, California, 96161"," LeRoy, KS ", United States 
95982,34.426111,-119.840277,"14665 Forest Ridge Rd. , Magalia, California, 95954"," Santa Barbara, CA ", United States 
74610,35.8775,-86.3775,"1235 Oakmead Pkwy., Sunnyvale, California, 94086"," Murfreesboro, TN ", United States 
76449,36.863056,-114.122223,"131 Callahan St., Etna, California, 96027"," Meadview, AZ ", United States 
14030,36.55,138.416667,"223 Reindollar Ave., Marina, California, 93933"," Nakatsugawa, Japan ", Japan 
69692,40.01,-105.047777,"San Francisco, California, 94114"," Erie, CO ", United States 
47648,32.476945,-98.52,"17605  Monterey Dr., Morgan Hill, California, 95037"," Ranger, TX ", United States 
52168,39.123056,-94.5925,"17370 Hill Rd., Morgan Hill, California, 95037"," Kansas City, MO ", United States 
60251,42.419723,-87.867223,"4384 Harness Tract Road, Camino, California, 95709"," Waukegan, IL ", United States 
35881,32.786666,-115.721667,"1777 Alamar Way, Fortuna, California, 95440"," El Centro, CA ", United States 
28852,37.828611,-121.625834,"3056 Roswell St., Los Angeles, California, 90065"," Byron, CA ", United States 
55341,41.668056,-70.274723,"975 Detroit Ave., Unit E, Concord, California, 94520"," Hyannis, MA ", United States 
84553,61.646111,-149.2925,"2151 Salvio St., Concord, California, 94518"," Palmer, AK ", United States 
100249,38.830834,-94.890277,"1933 Davis Street #177 (Westgate Mall), San Leandro, California, 94577"," New Century, KS ", United States 
2463,29.175,-82.224167,"902 Main St., Napa, California, 94559"," Ocala, FL ", United States 
22924,28.433611,-81.488055,"1119 Garden St., San Luis Obispo, California, 93401"," Orlando, FL ", United States 
25542,40.788333,-111.9775,"111 Industrial Rd # 7, Belmount, California, 94002"," Salt Lake City, UT ", United States 
115972,34.848611,-111.788611,"50 E. Washington St., Petaluma, California, 94952"," Sedona, AZ ", United States 
2980,34.4,-110.533333,"2120 Porterfield Way, Upland, California, 91786"," Overgaard, AZ ", United States 
125097,45.431111,-93.8575,"1040 Broad St., San Luis Obispo, California, 93401"," Becker, MN ", United States 
46701,43.825278,-71.163889,"1270 Lincoln Ave., Pasadena, California, 91103"," West Ossipee, NH ", United States 
108006,36.156111,-78.315556,"170 Orange St., Coronado, California, 92118"," Louisburg, NC ", United States 
19578,45.196389,-123.134444,"PO Box 221185, Carmel, California, 93923"," McMinnville, OR ", United States 
59508,29.633056,-95.655556,"500 4th Ave., San Diego, California"," Sugar Land, TX ", United States 
56446,31.999722,-110.357778,"1422 Monterrey St., San Luis Obispo, California, 93401"," Benson, AZ ", United States 
48800,31.042222,-102.101944,"225 Crossroads/Suite 121, Carmel, California, 93923"," Midland, TX ", United States 
129592,37.396111,-87.235555,"8111 Mira Mesa Blvd., San Diego, California, 92126"," Sacramento, KY ", United States 
114039,26,-80.241666,"1250 Lincoln Ave., Calistoga, California, 94515"," Hollywood, FL ", United States 
66800,38.213056,-122.280556,"100 W. Main St., Alhambra, California, 91801"," Napa, CA ", United States 
106799,28.816667,-81.258333,"945 W. 2nd St., Chico, California, 95928"," Sanford, FL ", United States 
47057,41.143611,-102.102222,"333 California Dr., Burlingame, California, 94010"," Loop City, NE ", United States 
61824,42.008889,-88.4575,"1082 B Street, Hayward, California, 94541"," Plato Center, IL ", United States 
68207,46.573056,-37.768334,"1132 Fourth St., San Rafael, California, 94901",  , Unknown 
125512,61.594722,-149.088611,"229 W. Montecito St., Santa Barbara, California, 93101"," Palmer, AK ", United States 
93019,35.366667,-31.1,"871 Showroom Place, Chula Vista , California, 91914"," Cramerton, NC ", United States 
87296,35.626945,-119.135833,"3542 S. Lake Tahoe Blvd., South Lake Tahoe, California, 96150"," McFarland, CA ", United States 
76748,36.179167,-83.375278,"219 E. Main St., Visalia, California, 93291"," Morristown, TN ", United States 
85879,34.146944,-97.122778,"412 Walnut Ave., Huntington Beach, California, 92648"," Ardmore, OK ", United States 
63961,35.959167,-115.493889,"7242 Heil Ave, Huntington Beach, California, 92647"," Las Vegas, NV ", United States 
94760,44.859167,-117.806389,"801 14th St., Sacramento, California, 95814"," Baker City, OR ", United States 
49608,35.754167,-115.266667,"101 N Coast Hwy, Ste C140, Oceanside, California, 92054"," Jean, NV ", United States 
80520,  ,  ,"8942 Greenback Lane, Suite E, Orangevale, California, 95662"," Cape Town, South Africa ", South Africa 
23328,0,0,"13040 Highway 9, Boulder Creek, California, 95006"," Merrenberg, France ", France 
13560,25.904167,-80.273611,"13040 Hwy 9, Boulder Creek, California, 95018"," Opa Locka, FL ", United States 
119121,25.904167,-80.273611,"130 S. Highland Ave , Fullerton , California, 92832"," Opa Locka, FL ", United States 
42917,40.075834,-123.816667,"404 S. Figueroa #418A, Los Angeles, California, 90071"," Garberville, CA ", United States 
52954,33.978056,-117.660278,"1740 Travis Blvd., Fairfield, California, 94533"," Chino, CA ", United States 
83112,46.096666,-122.262778,"3414 Adams Ave, San Diego, California, 92116"," Cougar, WA ", United States 
88574,38.570834,-79.935555,"41740 Enterprise Cir N, Ste 109, Temecula, California, 92593"," Durbin, WV ", United States 
111570,44.355278,-109.589444,"5258 E. 2nd St., Long Beach, California, 90803"," Cody, WY ", United States 
28662,32.836389,-97.363056,"200 Main St., Huntington Beach, California, 92648"," Fort Worth, TX ", United States 
27177,46.958056,10.841944,"10750 Stockdale Hwy., Bakersfield, California, 93311"," Mandarfrn, Austria ", Austria 
129585,37.624445,-76.906111,"7755 Center Ave, Ste. 300, Huntington Beach, California, 92647"," West Point, VA ", United States 
35759,  ,  ,"6424 Canoga Ave., Woodland Hills, California, 91367"," Culiacan, Mexico ", Mexico 
49475,36.124445,-86.678334,"939 Broxton Ave., Westwood, California, 90024"," Nashville, TN ", United States 
78904,37.303056,-108.628056,"3955 E. Thousand Oaks Blvd., Westlake Village, California, 91362"," Cortez, CO ", United States 
29619,36.425556,-85.057222,"2917 E. Eastland Center Dr., West Covina, California, 91791"," Jamestown, TN ", United States 
77512,42.3,-74.25,"24320 Town Center Dr., Valencia, California, 91355"," Windham, NY ", United States 
31631,39.6275,-86.087777,"26500 Ynez Rd., Temecula, California, 92591"," Greenwood, IN ", United States 
38913,43.35,-73.233333,"1045 Harriman Pl., San Bernardino, California, 92408"," Poultney, VT ", United States 
35366,-23.491666,-46.644444,"11520 4th St., Rancho Cucamonga, California, 91730"," Sao Paulo, Brazil ", Brazil 
111817,33.220556,-87.611389,"461 W. Esplanade Dr., Oxnard, California, 93030"," Tuscaloosa, AL ", United States 
12259,38.843055,-75.607778,"22920 Centerpoint Dr., Moreno Valley, California, 92553"," Farmington, DE ", United States 
19790,30.685555,-86.747222,"5500 Grossmont Center Dr., La Mesa, California, 91942"," Holt, FL ", United States 
33260,43.964167,-84.513889,"24032 El Toro Rd., Laguna Hills, California, 92653"," Gladwin, MI ", United States 
107079,43.778889,-116.938611,"280 S. Coast Hwy., Laguna Beach, California, 92651"," Parma, ID ", United States 
15174,29.506111,-95.476945,"8873 Villa La Jolla Dr., La Jolla, California, 92037"," Arcola, TX ", United States 
23620,44.137222,-73.465833,"13130 Jamboree Rd., Irvine, California, 92602"," Alburgh, VT ", United States 
18128,32.565278,-97.308056,"16060 Beach Blvd., Huntington Beach, California, 92647"," Fort Worth, TX ", United States 
105291,44.866945,-123.198055,"2520 Tuscany St., Corona, California, 92881"," Independence, OR ", United States 
56451,37.65,-97.384444,"11101 183rd St., Cerritos, California, 90703"," Wichita, KS ", United States 
102068,39.6675,-119.876111,"107 S. 1st St., Burbank, California, 91502"," Reno, NV ", United States 
57995,40.039444,-105.225834,"600 Brea Mall Dr., Brea, California, 92621"," Boulder, CO ", United States 
146,41.457778,-80.373611,"106 Main St., Balboa, California, 92661"," Greenville, PA ", United States 
18770,40.023611,-91.873889,"400 E. Huntington Dr., Arcadia, California, 91006"," La Belle, MO ", United States 
42774,30.209167,-85.8875,"1200 Roseville Pkwy., Roseville, California, 95678"," Panama City, FL ", United States 
13776,40.970834,-81.099722,"2598 Telegraph Ave., Berkeley, California, 94704"," Alliance, OH ", United States 
103702,40.412222,-86.936944,"PO Box 4821, Berkeley, California, 94704"," Lafayette, IN ", United States 
69826,32.753611,-101.918334,"40260 Big Bear Blvd., Big Bear Lake, California, 92315"," Lenora, TX ", United States 
57906,-23.55,-46.816667,"111 S. Murphy Ave., Sunnyvale, California, 94086"," San Paulo, Brazil ", Brazil 
31358,43.799722,-123.028889,"25 39th Pl., Long Beach, California, 90803"," Cottage Grove, OR ", United States 
92805,  ,  ,"345 Healdsburg Ave., Healdsburg, California, 95448"," Albrook, Panama ", Panama 
104375,38.066389,-121.408333,"7536 Fay Ave., La Jolla, California, 92037"," Stockton, CA ", United States 
109896,33.688333,-112.0825,"1000 Great Highway, San Francisco, California, 94121"," Phoenix, AZ ", United States 
102955,33.688333,-112.0825,"2000 Main St. Suite A, Irvine, California, 92614"," Phoenix, AZ ", United States 
44736,37.483611,-120.691666,"10051 Old Grove Rd., Ste. B, San Diego, California, 92131"," Turlock, CA ", United States 
28135,45.585,-122.138611,"15 Main St. Suite 100, Vista, California, 92084"," N. Bonneville, WA ", United States 
55871,44.304722,-96.816945,"78-772 Hwy. 111, La Quinta, California, 92253"," Brookings, SD ", United States 
8818,38.423334,-105.103611,"300 N. Main St., Corona, California, 91720"," Canon City, CO ", United States 
86148,33.675556,-117.868056,"27702 Crown Valley Pkwy., Ladera Ranch, California, 92694"," Santa Ana, CA ", United States 
120162,39.940277,-83.005,"21480 Yorba Linda Blvd., Yorba Linda, California, 92686"," Columbus, OH ", United States 
117547,53.353333,-168.24,"17568 Yorba Linda Blvd., Yorba Linda, California, 92686"," Nikolski, AK ", United States 
112385,  ,  ,"1829 E. Chapman Ave., Orange, California, 92867"," Charlotte (CLT), NC ", United States 
19908,33.751667,-116.282778,"10084 Adams Ave., Huntington Beach, California, 92646"," Palm Springs, CA ", United States 
45098,42.719445,-76.941111,"7071 Warner Ave. Suite A, Huntington Beach, California, 92647"," Penn Yan, NY ", United States 
43810,35.874445,-106.268056,"3002 Dow Ave., Ste.320, Tustin, California, 92780"," Los Alamos, NM ", United States 
22981,46.842222,-92.193611,"14450 Culver #E, Irvine, California, 92604"," Duluth, MN ", United States 
68134,51.316667,-116.916667,"71800 Hwy. 111 Suite A-176, Rancho Mirage, California, 92772"," Golden, Canada ", Canada 
23518,48.093055,-122.926389,"289 Washington Street, Auburn, California, 95603"," Sequim, WA ", United States 
109188,  ,  ,"15800 Roscoe Blvd., Van Nuys, California, 91406"," Katowice, Poland ", Poland 
1150,  ,  ,"833 W. Torrance Blvd. Suite 105, Torrance, California, 90502"," Palencia, Spain ", Spain 
44586,34.533333,135.5,"17700 Hwy 253, Boonville, California, 95415"," Yao-City, Japan ", Japan 
84299,39.4575,-74.577223,"1705 Mariposa St., San Francisco, California, 94107"," Atlantic City, NJ ", United States 
103793,37.550555,-112.216667,"472 E. Main St., Ventura, California, 93001"," San Carlos, CA ", United States 
35032,26.511389,-80.104444,"46 Varda Landing, Sausalito, California, 94965"," Boynton Beach, FL ", United States 
103291,30.398055,-87.348889,"PO Box 2530/2351 Alpine Blvd., Alpine, California, 91901"," Pensacola, FL ", United States 
93909,37.429167,-112.913333,"9368 Cabot Dr., San Diego, California, 92126"," Cedar City, UT ", United States 
127925,38.450833,-106.0175,"975 Detroit Ave, Unit E, Concord, California, 94518"," Salida, CO ", United States 
128097,36.161111,-97.085555,"20 City Blvd. W. Bldg. A-2, Orange, California, 92868"," Stillwater, OK ", United States 
26149,34.213889,-119.094444,"217 N Main St, Ste. 123, Santa Ana, California, 92701"," Camarillo, CA ", United States 
95886,50.533333,-115.75,"563 2nd. St.Â , San Francisco, California, 94107"," Fairmont, Canada ", Canada 
125425,42.992777,-84.138333,"200 N. Main St., Las Vegas, Nevada, 89101"," Owosso, MI ", United States 
120078,33.041666,-116.966667,"PO Box 36627, Las Vegas, Nevada, 89133"," Ramona, CA ", United States 
60625,38.566667,-122.183333,"10990 Industrial Way, Truckee, Calinfornia, 96161"," Lake Berryessa, CA ", United States 
115031,36.733333,-119.816667,"7935 W Sahara Ave. Ste #201, Las Vegas, Nevada, 89117"," Fresno, CA ", United States 
37077,37.663611,-121.297222,"124 Wonder St., Reno, Nevada, 89502"," Tracy, CA ", United States 
69252,27.201944,-80.235555,"HC 60 Box 100, Clover Valley, Nevada, 89835"," Stuart, FL ", United States 
12194,  ,  ,"3770 Las Vegas Blvd. S, Las Vegas, Nevada, 89109"," Catarina, TX ", United States 
80188,39.122223,-108.526667,"Las Vegas, Nevada"," Grand Junction, CO ", United States 
10430,41.883056,-106.180834,"846 Victorian Ave., Sparks, Nevada, 89431"," Wheatland, WY ", United States 
21262,33.819445,-118.154722,"3987 Paradise Rd., Las Vegas, Nevada, 89109"," Long Beach, CA ", United States 
55236,57.218889,-156.868056,"4178 Koval Ln, Las Vegas, Nevada, 89109"," Pilot Point, AK ", United States 
126917,46.159167,-94.657778,"2100 Casino Dr., Laughlin, Nevada, 89028"," Browerville, MN ", United States 
112190,61.368334,-150.051944,"2201 S Fort Apache Rd, Las Vegas, Nevada, 89117"," Anchorage, AK ", United States 
16342,26.585277,-81.857778,"345 N Virginia St., Reno, Nevada, 89505"," Fort Myers, FL ", United States 
2201,29.472223,-81.572223,"453 Nevada Highway, Boulder City, Nevada, 89005"," Crescent City, FL ", United States 
53687,10.566667,-64.25,"13999 S Virginia , Reno, Nevada, 89511"," Araya, Venezuela ", Venezuela 
47168,  ,  ,"4543 N Rancho Rd., Las Vegas, Nevada, 89130"," Windhoek, Namibia ", Namibia 
8782,40.729445,-73.413333,"4500 E. Sunset Rd. #30, Henderson , Nevada, 89014"," Farmingdale, NY ", United States 
75468,40.729445,-73.413333,"1370 Goodrich Dr., Lander, Wyoming, 82520"," Farmingdale, NY ", United States 
663,36.022778,-76.571667,"265 S. Millward, Jackson Hole, Wyoming"," Edenton, NC ", United States 
74740,34.591389,-83.763333,"115 W 15th St., Cheyenne, Wyoming, 82001"," Cleveland, GA ", United States 
117904,61.616945,-149.324723,"1 E Alger St., Sheridan, Wyoming, 82801"," Wasilla, AK ", United States 
59599,45.462778,-69.551389,"1622 Grand Ave., Laramie, Wyoming, 82070"," Greenville, ME ", United States 
29479,34.399444,-86.270278,"7680 Granite Loop Road ,  Teton Village, Wyoming, 83025"," Guntersville, AL ", United States 
105096,35.616945,-106.083889,"604 Broadway St., Rock Springs, Wyoming, 82901"," Santa Fe, NM ", United States 
94421,34.856111,-116.783333,"320 S 2nd St., Laramie, Wyoming, 82070"," Daggett, CA ", United States 
49058,31.233889,-94.75,"155 S. St. Andrews St., Dothan, Alabama, 36302"," Lufkin, TX ", United States 
47795,46.920556,-96.815833,"214 Holmes Ave., Huntsville, Alabama, 35801"," Fargo, ND ", United States 
125451,  ,  ,"124 Tichenor Ave., Auburn, Alabama, 36830"," Unadilla, GA ", United States 
96114,32.527223,-90.354722,"225 Dauphin St., Mobile, Alabama, 36602"," Flora, MS ", United States 
23241,70.492222,-148.703611,"3118 3rd Ave. S., Birmingham, Alabama, 35233"," Prudhoe Bay, AK ", United States 
106258,43.258333,-85.545833,"200 N. 6th St., Gadsden, Alabama, 35901"," Cedar Springs, MI ", United States 
64874,49.233333,-123.166667,"16 Tobey Rd., Bloomfield, Connecticut, 6002"," Vancouver, Canada ", Canada 
100136,38.520278,-91.628611,"131 Summer St., Stamford, Connecticut, 6901"," Morrison, MO ", United States 
51774,35.304444,-82.426389,"2600 Post Rd., Southport, Connecticut, 6490"," Hendersonville, NC ", United States 
124301,42.469723,-98.688055,"850 W. Main St., Branford, Connecticut, 6405"," O'Neill, NE ", United States 
36127,46.9325,-3.318056,"776 Tolland St., East Hartford, Connecticut, 6108"," Medora, ND ", United States 
121855,30.25,-95.65,"13 Marshall St., Norwalk, Connecticut, 6854"," Magnolia, TX ", United States 
52648,44.939722,-70.690555,"7 Selden St., Woodbridge , Connecticut, 6525"," Rangeley, ME ", United States 
38803,30.035833,-91.883611,"100 Mechanic St, Pawcatuck, Connecticut, 6379"," New Iberia, LA ", United States 
39916,43.403611,-70.900555,"942 Main St, Hartford, Connecticut, 6103"," Lebanon, ME ", United States 
95301,46.9575,6.864722,"357 Salmon Brook St., Granby, Connecticut, 6035"," Neuchatel, Switzerland ", Switzerland 
16505,35.985833,-96.000278,"84 Main St, Torrington, Connecticut, 6790"," Glenpool, OK ", United States 
63771,38.423611,-105.103611,"4508 University Ave, W Des Moines, Iowa, 50266"," Canon City, CO ", United States 
51960,44.224723,-89.530834,"200 10th St, Des Moines, Iowa, 50309"," Wautoma, WI ", United States 
111305,39.368889,-101.692777,"316 Main St, Ames, Iowa, 50010"," Goodland, KS ", United States 
114340,37.1425,-113.310556,"835 48th Ave, Amana, Iowa, 52203"," Hurricane, UT ", United States 
17379,35.101111,-118.423056,"723-725 Ave H, Ft. Madison, Iowa, 52627"," Tehachapi, CA ", United States 
65992,42.890833,-71.128056,"1722 Detroit St., Ellsworth, Iowa, 50075"," East Hampstead, NH ", United States 
104578,45.553333,-94.073334,"5270 Utica Ridge , Davenport, Iowa, 52807"," St Cloud, MN ", United States 
7443,32.460833,-111.728334,"4755 1st Ave SE, Cedar Rapids, Iowa, 52403"," Mesa, AZ ", United States 
67768,48.080556,-114.001667,"12801 University Ave, Clive, Iowa, 50325"," Bigfork, MT ", United States 
89581,38.830834,-94.890277,"101 N Railroad Ave, Shenandoah, Iowa, 51601"," New Century, KS ", United States 
47417,39.580834,-78.735833,"309 Court Ave., Des Moines, Iowa, 50309"," Wiley Ford, WV ", United States 
30231,29.723889,-98.694444,"1235 Thomas Beck Rd., Suite A, Des Moines, Iowa, 50315"," San Antonio, TX ", United States 
14343,29.521111,-95.241944,"3295 University Ave, Waterloo, Iowa, 50701"," Houston, TX ", United States 
79924,43.169445,-86.238055,"921 S. Riverside Dr., St. Charles, Missouri, 63302"," Muskegon, MI ", United States 
105654,48.816667,-125.066667,"114 Gutenberg St., Hermann, Missouri, 65041"," Bamfield, Canada ", Canada 
29495,25.555,-77.972223,"7260 SW Ave., Maplewood, Missouri, 63143"," Great Harbor, Bahamas ", Bahamas 
98183,45.428611,-122.942222,"1727 Park Ave, Saint Louis, Missouri, 63104"," Hillsboro, OR ", United States 
87554,34.813889,-92,"305 S. Market Ave., Springfield, Missouri, 65806"," Lonoke, AR ", United States 
83683,4.701389,-74.146944,"26 West Industrial Dr., O'Fallon, Missouri, 63366"," Bogota, Colombia ", Colombia 
74603,39.861667,-104.673056,"721 N. 2nd St., St. Louis, Missouri, 63102"," Denver, CO ", United States 
83191,26.175834,-98.238611,"4057 Pennsylvania, Kansas City, Missouri, 64111"," McAllen, TX ", United States 
110103,33.531389,-112.302777,"5510 Virginia, St. Louis, Missouri, 63111"," Glendale, AZ ", United States 
57026,29.704444,-98.042222,"3166 Hwy B, Berger, Missouri, 63014"," New Braunfels, TX ", United States 
91205,32.122223,-92.052778,"PO Box 31203, St. Louis, Missouri, 63131"," Columbia, LA ", United States 
55470,40.011111,-11.878889,"8461 NW Prairie View Rd., Kansas City, Missouri, 64153"," Santaquin, UT ", United States 
53922,33.875556,-84.301944,"115 S. 5th St., Columbia, Missouri, 65201"," Atlanta, GA ", United States 
129138,35.042222,-89.976667,"23589 State Route WW, St Genevieve, Missouri, 63670"," Memphis, TN ", United States 
2034,  ,  ,"16937 Boyd Rd., St. Genevieve, Missouri, 63670"," Istanbul, Turkey ", Turkey 
37286,-31.711667,-60.811667,"2501 Southwest Blvd., Kansas City, Missouri, 64108"," Santa Fe, Argentina ", Argentina 
32818,30.368334,-89.455,"101 S Madison, Aurora, Missouri, 65605"," Bay St Louis, MS ", United States 
46695,27.979167,-97.396389,"4 West Main Street, Bowling Green, Missouri, 63334"," Taft, TX ", United States 
121598,34.654444,-112.419445,"5521 Water St., Augusta, Missouri, 63332"," Prescott, AZ ", United States 
44039,36.759722,-80.820556,"One Busch Place 37-5, St. Louis, Missouri, 63118"," Hillsville, VA ", United States 
102733,42.711111,-110.942222,"520 W. 75th St., Kansas City, Missouri, 64114"," Afton, WY ", United States 
85600,37.668889,-95.485,"6059 MAPLE STREET, Omaha, Nebraska, 68104"," Chanute, KS ", United States 
10833,36.711111,-86.635833,"17070 Wright Plaza, Omaha, Nebraska, 68130"," Franklin, KY ", United States 
81553,49.316667,-111.466667,"514 S. 11th St., Omaha, Nebraska, 68102"," Townsend, MT ", United States 
24745,41.468611,-112.445277,"120 East 3rd St., Grand Island, Nebraska, 68801"," Brigham City, UT ", United States 
58871,41.968611,-87.907778,"18 E 21st St., Kearney , Nebraska, 68847"," Chicago, IL ", United States 
68900,40.068889,-82.0675,"300 W. Fourth St., Courtland, Nebraska, 68331"," Columbus, OH ", United States 
31952,35.278611,-106.625834,"62193 701st Rd, Pawnee City, Nebraska, 68420"," Rio Rancho, NM ", United States 
98758,35.216667,-107.25,"7474 Towne Center Pkwy # 101, Papillion , Nebraska, 68046"," Albuquerque, NM ", United States 
59963,35.265833,-106.666111,"6235 Havelock Ave, Lincoln, Nebraska, 68507"," Rio Rancho, NM ", United States 
38236,37.259444,-104.340555,"5900 Old Cheney Road , Lincoln, Nebraska, 68516"," Trinidad, CO ", United States 
43811,37.253333,-115.103333,"10922 Elm St., Omaha, Nebraska, 68144"," Alamo, NV ", United States 
58215,38.202222,-90.386666,"6150 O St., Lincoln, Nebraska, 68505"," Festus, MO ", United States 
88293,35.131945,-106.6175,"1001 N. 102nd St., Omaha, Nebraska, 68114"," Albuquerque, NM ", United States 
37225,45.154167,-89.110556,"2804 13th St., Columbus, Nebraska, 68602"," Antigo, WI ", United States 
43935,40.290833,-76.584723,"729 Q St. , Lincoln, Nebraska, 68508"," Palmyra, PA ", United States 
48899,29.326111,-98.842222,"717 W. 3rd St., Anchorage, Alaska, 99501"," Castroville, TX ", United States 
99082,38.194722,-90.385277,"717 W. 3rd St., Anchorage, Alaska, 99501"," Festus, MO ", United States 
75859,45.685833,-104.750278,"P.O. Box 946, Skagway, Alaska, 99840"," Ekalaka, MT ", United States 
85109,61.578889,-159.215556,"P.O. Box 82125, Fairbanks, Alaska, 99708"," Aniak, AK ", United States 
118135,10.5,-69.316667,"3300 Old Seward Highway, Anchorage, Alaska, 99503"," Santo Domingo, Venezuela ", Venezuela 
89169,38.550556,-77.715833,"7329 Arctic Blvd., Anchorage, Alaska, 99518"," Bealeton, VA ", United States 
4988,46.587222,-121.352222,"117 Lower Mill Bay Rd.., Kodiak, Alaska, 99615"," Naches, WA ", United States 
81441,35.183333,-120.366667,"241 N. Aspen St., #100, Soldotna, Alaska, 99669"," Arroyo Grande, CA ", United States 
37707,61.237777,-148.642222,"47160 Spruce Haven St, Kenai, Alaska, 99611"," Girdwood, AK ", United States 
94317,39.997777,-82.891666,"1411 lake Shore Dr., Homer, Alaska, 99603"," Columbus, OH ", United States 
42242,36.284722,-78.984166,"737 W. 5th Ave., Anchorage, Alaska, 99501"," Roxboro, NC ", United States 
8085,33.485555,-90.678889,"13605 E Main Street, Anchorage, Alaska, 99520"," Indianola, MS ", United States 
42926,57.938055,-156.055,"P.O. Box 1021, Talkeetna, Alaska, 99676"," King Salmon, AK ", United States 
114663,45.560277,-122.401944,"5429 Shaune Dr., Douglas , Alaska, 99801"," Troutdale, OR ", United States 
63597,34.017223,-81.333056,"7401 N La Cholla Blvd Ste. 178, Tuscon, Arizona, 85741"," Lexington, SC ", United States 
78220,17.742777,-64.902222,"322 East Camelback Road, Phoenix, Arizona, 85012"," St.Croix, VI ", United States 
2902,33.733889,-117.0225,"10426 E. Jomax Rd., Scottsdale, Arizona, 85255"," Hemet, CA ", United States 
71673,34.384444,-89.536944,"8668 E Shea Blvd, Scottsdale, Arizona, 85260"," Oxford, MS ", United States 
128042,32.826111,-116.9725,"14205 S. 50th St., Phoenix, Arizona, 85044"," El Cajon, CA ", United States 
53847,32.826111,-116.9725,"21001 N. Tatum Blvd. #38 1350, Phoenix, Arizona, 85308"," El Cajon, CA ", United States 
42369,37.215556,-80.391111,"7640 W. Bell Rd., Glendale, Arizona, 85308"," Blacksburg, VA ", United States 
110474,34.355833,-111.562778,"130 W. Gurley St. #A, Prescott, Arizona, 86301"," Strawberry, AZ ", United States 
17284,39.831389,-75.768611,"10426 E. Jomax Rd., Scottsdale, Arizona, 85255"," Toughkenamon, PA ", United States 
69457,41.344166,-82.1775,"7107 E. McDowell Rd., Scottsdale, Arizona, 85257"," Elyra, OH ", United States 
83974,31.170278,-89.17,"334 N 25th Ave., Phoenix, Arizona, 85009"," Laurel, MS ", United States 
107761,29.175278,-91.621945,"6681 W. Beardsley Rd., Glendale, Arizona, 85308"," Galveston, TX ", United States 
37834,35.470556,-93.426945,"8763 East Bell Rd. Ste. 101, Scottsdale, Arizona, 85260"," Clarksville, AR ", United States 
25904,35.353889,-117.439722,"2050 Yavapai Dr, Sedona, Arizona, 86336"," Oak Hills, CA ", United States 
73190,31.194722,-84.485277,"336 Hwy 179, Ste. D201, Sedona, Arizona, 86336"," Newton, GA ", United States 
70160,39.826111,-84.048333,"6464 E Tanque Verde Rd , Tuscon, Arizona, 85715"," Dayton, OH ", United States 
126642,40.736666,-72.649444,"210 Swanson Ave., Lake Havasu City, Arizona, 86403"," Hartford, CT ", United States 
76228,39.034722,-104.284166,"4366 Huntington Dr, Flagstaff, Arizona, 86004"," Calhan, CO ", United States 
18983,46.955278,-9.596666,"420 S Mille Ave, Ste. 201, Tempe, Arizona, 85281"," Cokato, NC ", United States 
42803,35.020556,-80.076945,"865 E. University Blvd., Tucson, Arizona, 85719"," Wadesboro, NC ", United States 
65527,61.441389,-148.609722,"1340 E. 8th St. #104, Tempe, Arizona, 85281"," Palmer, AK ", United States 
5441,34.477778,-93.096111,"16 East Rte. 66, Flagstaff, Arizona, 86001"," Hot Springs, AR ", United States 
18473,41.449444,-81.062778,"1A DD Street, South Bisbee, Arizona, 85603"," Middlefield, OH ", United States 
98337,32.215833,-97.197777,"1110 Hwy. 92, #8, Bisbee, Arizona, 85603"," Denton, TX ", United States 
68782,37.183611,-106.584444,"13605 E. Benson Hwy., Vail, Arizona, 85641"," Pagosa Springs, CO ", United States 
98247,  ,  ,"6245 E. Cave Creek Rd., Cave Creek, Arizona, 85331"," Dusseldorf, Germany ", Germany 
67119,43.307778,-117.894166,"122 E. Washington, Phoenix, Arizona, 85004"," Crowley Ranch, OR ", United States 
91319,31.780556,-81.647222,"5945 W. Ray Rd. Suite 13, Chandler, Arizona, 85226"," Walthourville, GA ", United States 
111275,47.949166,-97.176111,"3155 W. Chandler Blvd., Chandler, Arizona, 85226"," Grand Forks, ND ", United States 
60787,36.034722,-87.143333,"11 S. Beaver St., #1, Flagstaff, Arizona, 86001"," Fairview, TN ", United States 
65894,40.619445,-111.992777,"800 E 16th St, Tuscon, Arizona, 85719"," Salt Lake City, UT ", United States 
67702,36.659444,-76.318889,"1425 McCulloch Blvd., Lake Havasu City, Arizona, 86403"," Chesapeake, VA ", United States 
55982,38.554444,-82.733611,"125 East Fifth Ave., Tempe, Arizona, 85281"," Ashland, KY ", United States 
38230,37.041111,-111.240555,"5000 Arizona Mills Circle, Tempe, Arizona, 85282"," Lake Powell, UT ", United States 
48253,31.853333,-111.000556,"923 W. 7th St., Little Rock, Arkansas, 72201"," Green Valley, AZ ", United States 
89431,36.751667,-78.853056,"21 West Mountain, Fayetteville, Arkansas, 72701"," Halifax, VA ", United States 
117314,40.632223,-79.105278,"430 W. Dickson St., Fayetteville, Arkansas, 72701"," Indiana, PA ", United States 
14155,45.708889,  ,"323-C Cross St., Suite C, Little Rock, Arkansas, 72201"," Laurel, MT ", United States 
123078,36.454722,-105.67,"4650 E. Gulley Rd., Fayetteville, Arkansas, 72703"," Taos, NM ", United States 
50137,36.691666,-76.900278,"500 East Markham St., Little Rock, Arkansas, 72201"," Franklin, VA ", United States 
41799,36.235277,-83.315833,"500 President Clinton Ave., Little Rock, Arkansas, 72201"," Morristown, TN ", United States 
47037,29.645277,-95.278889,"35 E. 1st St., Nederland, Colorado, 80466"," Houston, TX ", United States 
115397,40.7375,-84.078611,"1123 Walnut St., Boulder, Colorado, 80302"," Jackson Center, OH ", United States 
35221,58.968056,-155.468334,"100 S. Frontage Rd. W, Vail, Colorado, 81657"," King Salmon, AK ", United States 
52892,37.894166,-121.238333,"1412 8th Ave., Greeley, Colorado, 80631"," Stockton, CA ", United States 
90041,35.433611,-119.056667,"8223 S. Quebec, Englewood, Colorado, 80112"," Bakersfield, CA ", United States 
26751,45.235833,-93.985555,"3201 Walnut Street, Ste. A, Boulder, Colorado, 80301"," Maple Lake, MN ", United States 
66071,40.029723,-82.461667,"500 Front St., Fairplay, Colorado, 80440"," Heath, OH ", United States 
33552,43.256389,11.255,"516 Elm St, Trinidad, Colorado, 81082"," Siena, Italy ", Italy 
107354,38.545,-89.835,"1401 Miner St., Idaho Springs, Colorado, 80452"," Belleville, IL ", United States 
83598,39.613333,-75.189166,"900 Auraria Parkway, Denver, Colorado, 80202"," Pittsgrove, NJ ", United States 
117725,42.556944,-92.400278,"586 Columbia St., Del Norte, Colorado, 81132"," Waterloo, IA ", United States 
34210,33.016667,-108.433333,"Englewood, Colorado"," Silver City, NM ", United States 
129245,33.039166,-116.915278,"226 Elk Ave., Crested Butte, Colorado, 81224"," Ramona, CA ", United States 
16810,37.483889,-120.697222,"P.O. Box 819, Telluride, Colorado, 81435"," Turlock, CA ", United States 
88356,38.809722,-91.103333,"205 Denargo Market, Denver, Colorado, 80216"," Warrenton, MO ", United States 
3875,30.525556,-87.384444,"442 Wolverine Dr., Bayfield, Colorado, 81122"," Pensacola, FL ", United States 
4749,30.371945,-96.113056,"801 E. 2nd Ave., Durango, Colorado, 81301"," Navasota, TX ", United States 
9559,35.613056,-100.996389,"435 Lincoln Ave., Steamboat Springs, Colorado, 80477"," Pampa, TX ", United States 
112110,33.177778,-96.590555,"331 Corporate Circle, Golden, Colorado, 80401"," McKinney, TX ", United States 
114915,40.85,-74.061667,"1860 Ski Time Square Dr., Steamboat Springs, Colorado, 80477"," Teterboro, NJ ", United States 
66011,38.748611,-90.366945,"627 South Broadway, Boulder, Colorado, 80305"," St. Louis, MO ", United States 
60450,60.75,-161.841111,"405 Main St., Grand Junction, Colorado, 81501"," Bethel, AK ", United States 
129469,36.0875,-114.080556,"P.O. Box 5570, Avon, Colorado, 81620"," Meadview, AZ ", United States 
62153,41.261944,-84.474723,"225 S Pine, Telluride, Colorado, 80487"," Defiance, OH ", United States 
39499,46.825,-95.885555,"2501 11th Ave., Greeley, Colorado, 80631"," Detroit Lakes, MN ", United States 
19091,0.5,33.274723,Colorado," Entebbe, Uganda ", Uganda 
48260,28.341666,-80.685555,"545 Turner Dr. Ste. C, Durango, Colorado, 81303"," Rockledge, FL ", United States 
96830,33.298889,-111.915833,"1333 Greene St, Silverton, Colorado, 81433"," Chandler, AZ ", United States 
126561,33.974723,-117.636666,"458 Main St., Silver Plume, Colorado, 80476"," Chino, CA ", United States 
69098,45.456944,-119.695,"3231 Chelton Circle, Colorado Springs, Colorado, 80909"," Lexington, OR ", United States 
89178,41.500833,-80.348055,"108 W third St, Pueblo, Colorado, 81003"," Atlantic, PA ", United States 
48501,27.711944,-82.282778,"2145 Blake St., Denver, Colorado, 80205"," Wimauma, FL ", United States 
109465,32.356944,-95.404167,"631Main St., Alamosa, Colorado, 81101"," Tyler, TX ", United States 
62274,34.981667,-105.998333,"300 S. Townsend #2, Telluride, Colorado, 81435"," Moriarty, NM ", United States 
98908,45.623056,-122.660556,"412 Park Ave/P.O. Box 733, Rifle, Colorado, 81650"," Woodland, WA ", United States 
17357,  ,  ,"115 E 7th St., Leadville , Colorado, 80461"," Bournemouth, United Kingdom ", United Kingdom 
115331,45.673889,9.704167,"880 W Castleton Rd, Castle Rock, Colorado, 80104"," Bergamo, Italy ", Italy 
65150,38.554444,-82.738055,"625 Paonia St, Colorado Springs, Colorado, 80915"," Worthington, KY ", United States 
42257,60.635833,-148.335,"405 Main St., Grand Junction, Colorado, 81501"," Whittier, AK ", United States 
116136,40.477223,-88.916111,"2880 Wilderness Pl., Boulder, Colorado, 80301"," Bloomington, IL ", United States 
36244,40.561944,-81.0775,"10633 Westmister Blvd, #900, Westminister, Colorado, 80020"," Carrollton, OH ", United States 
109049,36.124445,-86.678056,"9627 E County Line Rd, Englewood, Colorado, 80111"," Nashville, TN ", United States 
111496,61.055556,-151.225278,"1001 16th St., Ste. A-100, Denver, Colorado, 80265"," Tyonek, AK ", United States 
8105,35.539722,-84.526389,"331 Cinema Point Dr., Colorado Springs, Colorado, 80922"," Sweetwater, TN ", United States 
19478,38.331945,-96.191111,"6025 Sky Pond Drive, Loveland, Colorado, 80538"," Emporia, KS ", United States 
79579,64.205,-156.257222,"4700 Pearl St. # 2A, Boulder, Colorado, 80301"," McGrath, AK ", United States 
26935,64.223334,-147.671945,"2027 13th Street, Boulder, Colorado, 80302"," Fairbanks, AK ", United States 
81010,36.873334,-116.790277,"4825 Crest Rd., Fort Collins, Colorado, 80526"," Beatty, NV ", United States 
32348,44.191666,-120.975,"PO Box 102, Las Animas, Colorado, 81054"," Bend, OR ", United States 
122747,35.641666,-78.452778,"540 Main St., Longmont, Colorado, 80501"," Clayton, NC ", United States 
88118,60.048333,-147.9,"104 Village Place, Dillon, Colorado, 80435"," Chenega Bay, AK ", United States 
5622,41.508889,-72.829723,"1885 August Lane, Brighton, Colorado, 80601"," Meriden, CT ", United States 
97335,26.197222,-80.170556,"780 North 9th Ave. Unit F, Brighton, Colorado, 80601"," Ft. Lauderdale, FL ", United States 
72995,29.055556,-80.948889,"P.O. Box 11969, Pueblo, Colorado, 81001"," New Smyrna Bch, FL ", United States 
21707,  ,  ,"2501 11th Ave., Greeley, Colorado, 80631"," Saga, Japan ", Japan 
120201,39.505833,-107.309167,"221 W. 13th Ave., Denver, Colorado, 80204"," Glenwood Spring, CO ", United States 
42929,45.29,-118.006944,"1006 Pine St., Louisville, Colorado, 80027"," La Grande, OR ", United States 
117511,38.223889,-122.449722,"2547 Weston Rd., Colorado Springs, Colorado, 80910"," Schellville, CA ", United States 
125569,30.618611,-81.533611,"2 E. Pike Peak Ave., Colorado Springs, Colorado, 80903"," Yulee, FL ", United States 
128566,34.933889,-104.639166,"17384 Hwy. 119, Rollinsville, Colorado, 80474"," Santa Rosa, NM ", United States 
16040,38.15,-105.133333,"25 W. Cimarron, Colorado Springs, Colorado, 80903"," Hartsel, CO ", United States 
27289,62.858333,-152.626667,"PO Box 1535, Palisade , Colorado, 81526"," McGrath, AK ", United States 
61198,44.671389,-83.585277,"100 N Pagosa Blvd, Pagosa Springs, Colorado, 81147"," Barton City, MI ", United States 
120723,33.764444,-117.218889,"522 Main St., Ouray, Colorado, 81427"," Perris, CA ", United States 
73793,35.034444,-85.202222,"303 Main St., Lyons, Colorado, 80540"," Chattanooga, TN ", United States 
36093,41.210278,-81.251667,"170 Weaverville Rd., Divide, Colorado, 80814"," Ravenna, OH ", United States 
66777,33.870834,-84.726389,"5891 Nolan, Arvada, Colorado, 80003"," Hiram, GA ", United States 
91068,41.163333,-73.126111,"320 Link Lane, Fort Collins, Colorado, 80524"," Bridgeport, CT ", United States 
120574,60.566667,-149.875,"800 E. Lincoln Ave., Fort Collins, Colorado, 80524"," Cooper Landing, AK ", United States 
30294,35.1275,-111.682223,"3201 Walnut Street, Boulder, Colorado, 80302"," Flagstaff, AZ ", United States 
99081,45.773889,-122.85,"1095 Canyon Blvd., Boulder, Colorado, 80302"," Scappoose, OR ", United States 
12094,30.686945,-86.883889,"3200 Tejon St, Denver, Colorado, 80211"," Milton, FL ", United States 
11849,34.243055,-116.885555,"P.O. Box 116 / 3980 Broadway Suites 103-116, Boulder, Colorado, 80304"," Big Bear City, CA ", United States 
2671,35.307222,-82.433611,"500 Linden St., Fort Collins, Colorado, 80524"," Hendersonville, NC ", United States 
55140,34.231667,-99.278889,"128 E. 4th St., Loveland, Colorado, 80537"," Vernon, TX ", United States 
75362,41.151389,-81.901111,"7345 S. Pierce St., Littleton, Colorado, 80123"," Kent, OH ", United States 
5763,30.570278,-97.439166,"1535 Pearl Street, Boulder, Colorado, 80302"," Taylor, TX ", United States 
12659,32.523334,-93.741666,"81669 US Hwy 40, Winter Park, Colorado, 80482"," Bossier City, LA ", United States 
21207,41.021389,-91.413056,"PO Box 642, Littleton, Colorado, 80160"," Creston, IA ", United States 
45421,33.89,-118.243611,"2199 California St., Denver, Colorado, 80205"," Compton, CA ", United States 
51952,43.767778,-71.385277,"413 Main Street, Canon City, Colorado, 81212"," Moultonboro, NH ", United States 
80873,  ,  ,"10286 County Road 15, Longmont, Colorado, 80504"," Banbury, United Kingdom ", United Kingdom 
119054,  ,  ,"21 E. Main Street, Cortez, Colorado, 81321"," Phuket, Thailand ", Thailand 
128651,46.533333,8.733333,"435 Lincoln Ave., Steamboat Springs, Colorado, 80487"," Airolo, Switzerland ", Switzerland 
65790,29.522778,-99.517778,"375 E. 55th Ave., Denver, Colorado, 80216"," Utopia, TX ", United States 
71834,32.1575,-81.391389,"176 10th St. #B, Carbondale, Colorado, 81623"," Bloomingdale, GA ", United States 
94138,33.951944,-84.765556,"PO Box 13, Berthoud, Colorado, 80513"," Dallas, GA ", United States 
5255,40.000556,-105.034722,"214 Linden St., Fort Collins, Colorado, 80524"," Erie, CO ", United States 
115771,34.001389,-101.324723,"1265 Boston Ave., Longmont, Colorado, 80501"," Floydada, TX ", United States 
73967,34.086111,-118.034722,"1960 N 12th St, Grand Junction, Colorado, 81501"," El Monte, CA ", United States 
32801,39.990277,-75.581945,"4 South Cascade Ave., Colorado Springs, Colorado, 80903"," West Chester, PA ", United States 
36503,39.474445,-123.795555,"2020 Arapahoe St. #101, Denver, Colorado, 80205"," Fort Bragg, CA ", United States 
63315,39.664722,-119.869723,"12354 W. Alameda Pkwy. Unit E, Lakewood, Colorado, 80228"," Reno, NV ", United States 
51581,39.664722,-119.869723,"108 W. 3rd St., Pueblo, Colorado, 81003"," Reno, NV ", United States 
77979,37.704722,-122.220556,"136 E. 2nd St., Salida, Colorado, 81201"," Oakland, CA ", United States 
117451,33.875556,-84.301944,"11 S. Tejon, Colorado Springs, Colorado, 80903"," Atlanta, GA ", United States 
58912,42.608333,-112.031667,"143 East Meadow Dr., Vail, Colorado, 81658"," Lava Hot Spring, ID ", United States 
11244,20.516667,-103.3,"2320 E Main St, Montrose, Colorado, 81401"," Guadalajara, Mexico ", Mexico 
122058,32.396944,-88.076945,"149 Steele St., Denver, Colorado, 80206"," Whitfield, AL ", United States 
6133,28.013889,-82.345277,"149 Steele St., Denver, Colorado, 80206"," Tampa, FL ", United States 
63668,40.948055,-80.862222,"8028 W Bowles Ave., Littleton, Colorado, 80123"," Salem, OH ", United States 
73903,42.460278,-71.517778,"311 W 104th Ave, Northglenn, Colorado, 80234"," Stow, MA ", United States 
104087,44.627778,-93.228056,"14285 W Colfax Ave., Golden, Colorado, 80401"," Minneapolis, MN ", United States 
9170,45.9425,-116.123334,"4910 Fox St. #E, Denver, Colorado, 80216"," Grangeville, ID ", United States 
105685,  ,  ,"300 W Hwy 291, Salida, Colorado, 81201"," Washington, DC ", United States 
115282,48.493333,-122.455,"2820 West 116th Place, #101, Westminster, Colorado, 80234"," Burlington, WA ", United States 
16311,39.664167,-119.883889,"1860 Ski Time Square Dr., Steamboat Springs, Colorado, 80477"," Reno, NV ", United States 
77671,38.083333,-104.433333,"Po Box 3012, Winter Park, Colorado, 80482"," Avondale, CO ", United States 
19381,32.875556,-93.921389,"3100 South Sheridan Blvd, Ste 1c-164, Denver, Colorado, 80227"," Hosston, LA ", United States 
94026,44.369445,-123.667778,"138 N Main St., Gunnison, Colorado, 81230"," Alsea, OR ", United States 
122163,39.570278,-104.849444,"12503 Daniels Gate Dr., Castle Rock, Colorado, 80108"," Englewood, CO ", United States 
7179,33.813889,-118.147777,"Keystone, Colorado"," Long Beach, CA ", United States 
20625,47.940555,-102.890555,"2201 Arapahoe St., Denver, Colorado, 80205"," Keene, ND ", United States 
124273,35.822778,-81.618889,"PO Box 615, Grnad Lake, Colorado, 80447"," Morganton, NC ", United States 
1600,42.805833,-102.175,"PO Box 2043, Edwards, Colorado, 81632"," Gordon, NE ", United States 
23359,46.606667,-111.982778,"1 W Flatiron Cir, Ste. 428, Broomfield, Colorado, 80021"," Helena, MT ", United States 
80613,40.652222,-75.440277,"920 12th St., Golden, Colorado, 80401"," Allentown, PA ", United States 
45303,31.363889,-103.019445,"402 7th St., Glenwood Springs, Colorado, 81601"," Fort Stockton, TX ", United States 
21580,34.857222,-86.769723,"21 E. Main Street, Cortez, Colorado, 81321"," Harvest, AL ", United States 
65318,34.152222,-116.196389,"1900 E. Lincoln Ave. Unit B, Fort Collins, Colorado, 80524"," Joshua Tree, CA ", United States 
52768,33.176945,-86.782778,"424 East Cooper, Aspen, Colorado, 81611"," Alabaster, AL ", United States 
49507,18.58,-72.2925,"2401 Blake St., Denver, Colorado, 80205"," Port-au-Prince, Haiti ", Haiti 
121964,38.724167,-120.753333,"721 10th St., Greeley, Colorado, 80631"," Placerville, CA ", United States 
63942,37.66,-93.816667,"2550 49th St. #8, Boulder, Colorado, 80301"," Stockton, MO ", United States 
81471,48.254167,-122.435277,"1761 S Niagra Way, Denver, Colorado, 80224"," Stanwood, WA ", United States 
54997,34.870834,-118.209167,"470 Prospect Village Dr., Estes Park, Colorado, 80517"," Rosamond, CA ", United States 
59017,63.283333,-143.010278,"6901 W. 117th Ave. A-6, Broomfield, Colorado, 80020"," Tok, AK ", United States 
112287,27.145833,-82.5,"215 Elk Ave., Crested Butte, Colorado, 81224"," Nokomis, FL ", United States 
97003,39.668334,-119.876389,"26 South Main St, Buena Vista, Colorado, 81211"," Reno, NV ", United States 
102913,32.683333,-130.216667,"3000 Main Ave., Durango, Colorado, 81301"," Hobbs, NM ", United States 
21546,61.902222,-154.551944,"15110 E Hampden Ave., Aurora, Colorado, 80014"," McGrath, AK ", United States 
121044,33.970556,-80.995277,"1 Dostal Alley, Central City, Colorado, 80427"," Columbia, SC ", United States 
126814,34.346944,-119.061111,"100 S 4th St, Dolores, Colorado, 81323"," Santa Paula, CA ", United States 
1936,  ,  ,"742 N. College Ave., Fort Collins, Colorado, 80525"," Johannesburg, South Africa ", South Africa 
17630,48.216667,9.926667,"100 Little Dam Rd, Dillon, Colorado, 80435"," Buhl, Germany ", Germany 
82979,48.053611,-122.81,"1735 19th St. Suite 100, Denver, Colorado, 80202"," Port Townsend, WA ", United States 
9557,29.805,-84.595833,"1390 West Evans Ave, Bldg 2, Unit O, Denver, Colorado, 80223"," Carrabelle, FL ", United States 
76350,34.273889,-83.833889,"226 Elk Ave., Crested Butte, Colorado, 81224"," Gainesville, GA ", United States 
94609,43.624167,-140.861944,"625 3rd St. # D, Greeley, Colorado, 80631"," Fairfield, ID ", United States 
86573,46.821667,-120.440277,"311 10th St, 303-277-6246, Colorado, 80401"," Ellensburg, WA ", United States 
38421,42.007778,-71.191389,"2400 Industrial Ln. #350, Broomfield, Colorado, 80020"," Mansfield, MA ", United States 
12479,33.844444,-101.761111,"#5 Old Towne Square, Fort Collins, Colorado, 80524"," Lubbock, TX ", United States 
108382,34.853611,-82.419723,"5798 S. Rapp St., Littleton, Colorado, 80120"," Greenville, SC ", United States 
99249,29.976945,-99.085555,"12160 Pennsylvania St., Thornton, Colorado, 80241"," Kerrville, TX ", United States 
128013,33.811667,-78.723889,"1735 19th St. Suite 100, Denver, Colorado, 80202"," N Myrtle Beach, SC ", United States 
3468,35.623056,-80.910277,"3029 Delta Dr., Colorado Springs, Colorado, 80910"," Mooresville, NC ", United States 
71012,61.18,-149.971945,"7803 Ralston Rd, Arvada, Colorado, 80002"," Anchorage, AK ", United States 
116293,33.897777,-117.6025,"1065 S. Elisabeth St., Denver, Colorado, 80209"," Corona, CA ", United States 
103164,34.091666,-117.781667,"1442 Larimer St., Denver, Colorado, 80202"," La Verne, CA ", United States 
29908,36.820556,-76.022223,"1022 Main Ave., Durango, Colorado, 81301"," Virginia Beach, VA ", United States 
37280,42.525834,-88.035278,"1257 W 120th Ave, Westmister, Colorado, 80234"," Bristol, WI ", United States 
90266,  ,  ,"43 W Centennial Pkwy, Highlands Ranch, Colorado, 80126"," Prajuabkhirikha, Thailand ", Thailand 
63145,40.745,-74.556667,"1415 W Elizabeth St, Fort Collins, Colorado, 80521"," Bernardsville, NJ ", United States 
113897,38.470278,-78.398611,"6575 Greenwood Plaza Blvd., Englewood, Colorado, 80111"," Syria, VA ", United States 
80519,68.675556,-151.783889,"555 Zang St., Broomfield, Colorado, 80020"," Umiat, AK ", United States 
107210,38.367778,-80.561667,"4700 Cherry Creek South Dr., Denver, Colorado, 80246"," Cowen, WV ", United States 
48034,27.988889,-82.018611,"7229 E. County Rd.18, Loveland, Colorado, 80537"," Lakeland, FL ", United States 
49907,29.625556,-83.291389,"2441 Broadway, Denver, Colorado, 80205"," Cross City, FL ", United States 
15360,42.665278,-83.42,"1647 South Tejon St., Colorado Springs, Colorado, 80906"," Pontiac, MI ", United States 
107856,35.077778,-106.167223,"471 Kalamath Street, Denver, Colorado, 80204"," Edgewood, NM ", United States 
96716,39.294722,-109.588333,"2220 Blake St., Denver, Colorado, 80204"," Thompson, UT ", United States 
57625,34.343333,-119.065556,"600 S. Main St., Breckenridge, Colorado, 80424"," Santa Paula, CA ", United States 
87442,42.362778,-71.006389,"2880 Wilderness Pl., Boulder, Colorado, 80301"," Boston, MA ", United States 
115872,43.234166,-77.118889,"127 E Aspen Ave, Fruita, Colorado, 81521"," William-Sodus, NY ", United States 
37667,39.678611,-75.606389,"12th & East St., Golden, Colorado, 80401"," Wilmington, DE ", United States 
102881,37.667778,-119.133611,"1125 Pearl St, Boulder, Colorado, 80302"," Mammoth Lakes, CA ", United States 
107099,40.9475,-74.314444,"511 16th St., Denver, Colorado, 80202"," Lincoln Park, NJ ", United States 
55791,39.667223,-119.876111,"1427 W. Elizabeth St., Fort Collins, Colorado, 80521"," Reno, NV ", United States 
4388,33.039166,-116.915,"6575 Greenwood Plaza Blvd., Englewood, Colorado, 80112"," Ramona, CA ", United States 
44731,47.559444,-121.863611,"1113 Spruce St., Boulder, Colorado, 80306"," Fall City, WA ", United States 
102620,47.333333,-122.95,"127 South Fir St., Telluride, Colorado, 81435"," Shelton, WA ", United States 
53749,34.73,-112.035277,"720 Main St., Frisco, Colorado, 80443"," Cottonwood, AZ ", United States 
126263,57.42,-152.722778,"3200 N. Stone Ave., Colorado Springs, Colorado, 80907"," Kodiak, AK ", United States 
18176,38.805,-84.656667,"4 South Cascade Ave., Colorado Springs, Colorado, 80903"," Verona, KY ", United States 
121318,41.602778,-82.684722,"5763 E. Arapahoe Ave #E, Boulder, Colorado, 80303"," Kelleys Island, OH ", United States 
120225,61.454444,-145.703889,"375 E. 55th Ave., Denver, Colorado, 80237"," Valdez, AK ", United States 
60742,42.206944,-88.323056,"4699 Nautilus Ct. Ste. 104, Boulder, Colorado, 80301"," Lake-in-Hills, IL ", United States 
82016,40.985277,-75.990277,"2506 Platte Pl, Colorado Springs, Colorado, 80909"," Hazleton, PA ", United States 
58490,37.9225,-97.903611,"2351 Busch Dr., Fort Collins, Colorado, 80524"," Hutchinson, KS ", United States 
100263,40.728611,-73.413333,"136 East Second St., Salida, Colorado, 81201"," Farmingdale, NY ", United States 
57121,40.728611,-73.413333,"8405 Park Meadows Center Dr., Littleton, Colorado, 80124"," Farmingdale, NY ", United States 
15260,39.771945,-94.909722,"Golden, Colorado, 80401"," Union Star, MO ", United States 
97911,35.685555,-101.375278,"4210 Kennett Pike, Greenville, Delaware, 19807"," Borger, TX ", United States 
115837,40.6125,-112.350833,"219 Governors Square, Bear, Delaware, 19701"," Tooele, UT ", United States 
28457,41.1125,-98.051667,"15 James Ct., Wilmington, Delaware, 19801"," Central City, NE ", United States 
104313,41.050833,-73.708333,"1284 McD Drive, Dover, Delaware"," White Plains, NY ", United States 
39072,29.080278,-81.046666,"2502 W 6th St., Wilmington, Delaware, 19805"," Daytona Beach, FL ", United States 
128176,29.080278,-81.046666,"147 E. Main St., Newark, Delaware, 19711"," Daytona Beach, FL ", United States 
112243,36.433611,-82.102778,"710 S Madison St, Wilmington, Delaware, 19805"," Elizabethton, TN ", United States 
24065,30.133333,-99.150556,"1284 McD Drive, Dover, Delaware, 19901"," Kerrville, TX ", United States 
12170,27.262778,-80.849722,"6 Cannery Village Ct., Milton, Delaware, 19968"," Okeechobee, FL ", United States 
5803,40.395833,-78.453889,"320 Reheboth Ave., Reheboth Beach, Delaware, 19971"," Newry, PA ", United States 
17005,40.981667,-81.041944,"147 E. Main St., Newark, Delaware, 19711"," Alliance, OH ", United States 
9072,45.833333,-120.883333,"3801 Kennett Pike, Wilmington, Delaware, 19807"," Goldendale, WA ", United States 
56156,37.333333,-121.816667,"P.O. Box 7077, Newark, Delaware, 19714"," San Jose, CA ", United States 
49879,33.511667,-111.698333,"413 S Bedford St, Georgetown, Delaware, 19947"," Mesa, AZ ", United States 
78234,35,-97,"6941 Lake Nona Blvd, Orlando, Florida, 32827"," Edmond, OK ", United States 
23979,37.625834,-120.954444,"1151 Bayview Ave., Panama City Beach, Florida, 32401"," Modesto, CA ", United States 
113199,62.858333,-152.626667,"2851 Monroe St., Stuart, Florida, 34994"," McGrath, AK ", United States 
73887,41.509722,-74.264444,"200 N. First St., Jacksonville Beach, Florida, 32250"," Goshen, NY ", United States 
68000,41.153056,-111.761667,"5813 Ponce De Leon Blvd, Miami, Florida, 33146"," Morgan, UT ", United States 
69413,35.724445,-118.424167,"2 Independent Dr, Jacksonville, Florida, 32202"," Kernville, CA ", United States 
26761,35.182778,-103.603056,"289 US Highway 1, Tequesta, Florida, 33469"," Tucumcari, NM ", United States 
64701,39.011111,-95.216389,"317 Miracle Mile, Coral Gables, Florida, 33134"," Lawrence, KS ", United States 
36377,41.803333,-107.193055,"9565 Sunset Dr., Miami, Florida, 33173"," Rawlins, WY ", United States 
25233,39.530834,-84.395277,"1600 E 8th Ave, Ste A123, Tampa, Florida, 33605"," Middletown, OH ", United States 
36416,44.865556,-91.484166,"3140 SW 42nd Way, Gainsville, Florida, 32605"," Eau Claire, WI ", United States 
71469,40.978334,-85.195,"1100 Main St., Lady Lake, Florida, 32159"," Fort Wayne, IN ", United States 
26626,36.705278,-119.402778,"1 Washington Ave., Miami Beach, Florida, 33139"," Reedley, CA ", United States 
72406,18.595833,-72.224445,"9735 Gate Parkway N, Jacksonville, Florida, 32246"," Port-au-Prince, Haiti ", Haiti 
79582,35.811667,-83.774723,"6607 Gateway Ave., Sarasota, Florida, 34231"," Sevierville, TN ", United States 
55969,41.403611,-95.048611,"54 Miracle Strip Pkwy., Fort Walton Beach, Florida, 32548"," Atlantic, IA ", United States 
85246,41.263056,-122.272223,"54 Miracle Strip Pkwy., Ft. Walton Beach, Florida, 32548"," Dunsmuir, CA ", United States 
75174,41.919167,-71.488055,"835 Museum Circle, Jacksonville, Florida, 32207"," Pawtucket, RI ", United States 
50505,38.686111,-120.876389,"207 Atlantic Blvd., Atlantic Beach, Florida, 32233"," Diamond Springs, CA ", United States 
57856,38.690555,-120.993055,"1368A Spaulding Rd., Dunedin, Florida, 34697"," Cameron Park, CA ", United States 
75346,35.433611,-119.056944,"11040 Middle Beach Rd., Panama City Beach, Florida, 32407"," Bakersfield, CA ", United States 
23259,33.675,-113.774723,"1301 Atlanta Ave., Orlando, Florida, 32806"," Salome, AZ ", United States 
46011,38.382223,-90.973334,"4410 Flagg St., Orlando, Florida, 32812"," St. Clair Rgnl., MO ", United States 
53413,26.840833,-80.220278,"2798 Pembroke Rd, Melbourne, Florida, 32935"," West Palm Beach, FL ", United States 
123560,38.058056,-97.274445,"1313 Eighth Ave., Ybor City, Florida, 33605"," Newton, KS ", United States 
128777,33.5875,-114.606389,"1520 SE 3rd Ave, Fort Lauderdale, Florida, 33316"," Blythe, CA ", United States 
114619,28.228056,-82.155833,"1725 SE Federal Highway , Stuart, Florida, 34994"," Zephyrhills, FL ", United States 
217,44.343055,-88.790834,"330 W. Fairbanks, Winter Park, Florida, 32789"," New London, WI ", United States 
4110,35.723056,-104.995,"5905 S. Kirkman Rd., Orlando, Florida, 32819"," Watrous, NM ", United States 
78446,40.574723,-122.408056,"11491 Cleveland Ave., Fort Myers, Florida, 33907"," Redding, CA ", United States 
7017,26.246944,-80.110833,"9292 NW 101st, Miami, Florida, 33178"," Pompano Beach, FL ", United States 
16254,48.99,-122.732223,"33 Highway 98 E., Destin, Florida, 32541"," Blaine, WA ", United States 
45852,42.982223,-74.804444,"600 E. Gregory Street, Pensacola, Florida, 32501"," Danube, NY ", United States 
64004,35.517223,-97.408333,"120 SW First Ave., Gainesville, Florida, 32601"," Guthrie, OK ", United States 
78310,40.247222,-85.172222,"PO Box 1018 , Anna Maria , Florida, 34216 "," Hagerstown, IN ", United States 
127082,38.1625,-81.855,"1000 Charleston Ave S, Fort Meade, Florida, 33841"," Julian, WV ", United States 
47006,28.586111,-81.9625,"1107 Key Plaza, Key West, Florida, 33040"," Center Hill, FL ", United States 
43972,40.7,-72.583333,"301 Whitehead St., Key West, Florida, 33040"," Westhampton, NY ", United States 
119682,38.719445,-77.509167,"PO Box 7179, Jupiter, Florida, 33468"," Manassas, VA ", United States 
3616,37.090555,-113.593055,"9920 Alternate A1A, Suite 810, Palm Beach Gardens, Florida, 33410"," St. George, UT ", United States 
40304,60.573056,-151.245,"2500 S. Harbor City Blvd., Melbourne, Florida, 32901"," Kenai, AK ", United States 
120760,21.307222,-158.070278,"111 SW 2nd Ave., Fort Lauderdale, Florida, 33301"," Kapolei, HI ", United States 
8115,40.481667,-111.428611,"4576 Okeechobee Blvd, West Palm Beach, Florida, 33417"," Heber, UT ", United States 
36058,36.341666,-104.733334,"8305 Bay Pine Blvd., St. Pete, Florida, 33709"," Taos, NM ", United States 
58068,43.799722,-123.028889,"111 Oregon Ave., Sanford, Florida, 32771"," Cottage Grove, OR ", United States 
125757,42.648889,-111.621389,"10042 US Hwy. 19 N, Port Richey, Florida, 34668"," Soda Springs, ID ", United States 
94659,38.547222,-76.047222,"3571 n Federal Hwy, Pompano Beach, Florida, 33064"," Cambridge, MD ", United States 
97953,62.505,-152.843333,"11555 Pines Blvd, Pembroke Pines, Florida, 33026"," Skwentna, AK ", United States 
78114,47.719167,-2.723334,"1780 Wells Rd., Orange Park, Florida, 32073"," Vannes, France ", France 
77532,31.728611,-110.285833,"2505 SW College Rd., Ocala, Florida, 34474"," Whetstone, AZ ", United States 
80601,38.289166,-104.496389,"1251 E. Fowler Ave., Tampa, Florida, 33612"," Pueblo, CO ", United States 
62020,  ,  ,"5043 S Cleveland Ave, Fort Meyers, Florida, 33907"," Anoka, MN ", United States 
99600,48.483333,-122.9375,"848 Sandlake Rd., Orlando, Florida, 32805"," Lopez Island, WA ", United States 
62446,32.468334,-100.921111,"9050 SW 136th St, Miami, Florida, 33176"," Colorado City, TX ", United States 
29914,38.976389,-76.329723,"2600 University Drive, Coral Springs, Florida, 33065"," Stevensville, MD ", United States 
96450,45.852222,-84.639722,"545 N. Congress Ave., Boynton Beach, Florida, 33425"," Cheboygan, MI ", United States 
107479,35.191111,-76.663889,"995 State Rd. 434 N, Altamonte Springs, Florida, 32714"," Vandemere, NC ", United States 
115588,40.843333,-72.631667,"3770 SW Archer Rd, Gainesville, Florida, 32608"," Westhampton, NY ", United States 
112892,26.613611,-81.25,"9826 San Jose Blvd., Jacksonville, Florida, 32257"," Labelle, FL ", United States 
96804,38.976945,-77.953056,"19149 Dove Creek Drive, Tampa, Florida, 33647"," Markham, VA ", United States 
98887,29.645555,-95.278889,"327 N. Dale Mabry Hwy., Tampa, Florida, 33609"," Hobby Airport, TX ", United States 
58394,9.417778,-64.466945,"14303 N. Dale Mabry Hwy., Tampa, Florida, 33618"," Anaco, Venezuela ", Venezuela 
17658,60.781111,-151.908611,"33086 U.S. Hwy. 19 N., Palm Harbor, Florida, 34684"," Kenai, AK ", United States 
51563,30.519723,-86.438333,"4820 South Florida Ave., Lakeland, Florida, 34744"," Niceville, FL ", United States 
114287,37.588889,-99.460556,"18825 U.S. Hwy. 19 North, Clearwater, Florida, 34624"," Mullinville, KS ", United States 
95974,42.014722,-88.4625,"4502 W. 14th St., Bradenton, Florida, 34207"," Plato Center, IL ", United States 
35423,35.213611,-80.67,"36221 E. Lake Rd., Palm Harbor, Florida, 34685"," Charlotte, NC ", United States 
98723,39.528889,-104.657778,"211 Duval St., Key West, Florida, 33040"," Parker, CO ", United States 
117443,33.489444,-101.650833,"  1201 Brickell Av, #250, Miami, Florida, 33131"," Slaton, TX ", United States 
47902,32.8425,-90.954166,"645 W. Michigan St., Orlando, Florida, 32805"," Cary, MS ", United States 
84336,44.860278,-107.671389,"27964 US Hwy. 19 N, Clearwater, Florida, 34621"," Dayton, WY ", United States 
35611,33.534722,-84.178611,"P.O. Box 561357, Orlando, Florida, 32805"," Stockbridge, GA ", United States 
787,50.106111,8.676111,"2500 S Harbor City Blvd, Melbourne, Florida, 32901"," Frankfurt, Germany ", Germany 
6164,  ,  ,"202 Gandy Rd., Auburndale, Florida, 33823"," Naha, Okinawa, Japan ", Japan 
111698,26.641111,-80.289722,"7902 NW 64th St., Miami, Florida, 33166"," Wellington, FL ", United States 
51329,36.613333,-86.810278,"937 Douglas Ave., Dunedin, Florida, 34698"," Springfield, TN ", United States 
97195,47.819445,-120.719723,"Auburndale, Florida"," Leavenworth, WA ", United States 
51306,29.303611,-81.113611,"Miami, Florida, 33122"," Ormond Beach, FL ", United States 
60876,40.33,-74.346666,"630 6th St., Miami Beach, Florida, 33139"," Old Bridge, NJ ", United States 
98658,37.833333,-107.333333,"11111 North 30th St, Tampa, Florida, 33612"," Lake City, CO ", United States 
79373,59.205,-154.975278,"150 N Atlantic Ave, Cocoa Beach, Florida, 32931"," Iliamna, AK ", United States 
41573,61.394444,-149.845555,"1020 Ocean Drive, Miami, Florida, 33139"," Big Lake, AK ", United States 
17698,  ,  ,"3924 Spruce St W, Ste A, Tampa, Florida, 33607"," Winamac, IN ", United States 
9064,36.133611,-80.221945,"6300 N. Wickham Rd., Melbourne, Florida, 32940"," Winston-Salem, NC ", United States 
109937,37.435,-105.866667,"971A E Eaugallic Blvd., Melbourne, Florida, 32927"," Alamosa, CO ", United States 
91986,27.976667,-82.758611,"1900 Capitol Circle NE, Tallahasee, Florida, 32308"," Clearwater, FL ", United States 
85593,41.252222,-69.975,"36221 E. Lake Rd., Palm Harbor, Florida, 34685"," Siassconset, MA ", United States 
127131,64.3,-149.116667,"700 S Rosemary Ave, Ste 212, West Palm Beach, Florida, 33401"," Clear, AK ", United States 
72336,67.468334,-151.228334,"2222 Glades Rd , Boca Raton, Florida, 33431"," Bettles, AK ", United States 
92079,42.880834,-85.522778,"8320 W State Rd 84, Davie, Florida, 33324"," Grand Rapids, MI ", United States 
129624,40.871389,-101.732778,"10170 NW S River Dr., Medley, Florida, 33178"," Grant, NE ", United States 
33264,29.833333,-82.033333,"620 N. Denning Drive, #100, Winter Park, Florida, 32789"," Keystone Height, FL ", United States 
7809,40.466667,-11.416667,"10550-2 Old St. Augustine Rd., Jacksonville, Florida, 32257"," Heber, UT ", United States 
15204,64.966667,-148.5,"2101 N. Epcot Resort Blvd., Lake Buena Vista, Florida, 32830"," Fairbanks, AK ", United States 
91327,35.073056,-77.043055,"1800 University Dr, Coral Springs, Florida, 33071"," New Bern, NC ", United States 
35098,  ,  ,"5905 S. Kirkman Rd., Orlando, Florida, 32819"," Henning, MN ", United States 
109569,44.586944,-77.835,"111 Busch Dr, Jacksonville, Florida, 32218"," Rochester, NY ", United States 
1016,55.7,-131.633333,"1115 16th St., Miami Beach, Florida, 33139"," Ketchikan, AK ", United States 
101713,  ,  ,"1 King St., St. Augustine, Florida, 32084"," Los Angeles, CA ", United States 
61813,  ,  ,"12460 Crabapple Rd., Alpharetta, Georgia, 30201"," Los Angeles, CA ", United States 
119989,29.256111,-92.847777,"211 E Trinity Place, Decatur, Georgia, 30030"," Gulf of Mexico, GM ", United States 
51604,34.4,-96.15,"2067 Watson Blvd., Warner Robins, Georgia, 31093"," Atoka, OK ", United States 
109352,33.607778,-96.174167,"2480 Riverside Dr., Macon, Georgia, 31204"," Bonham, TX ", United States 
128573,64.813889,-147.918334,"265 Newton Bridge Rd, Athens, Georgia, 30607"," Fairbanks, AK ", United States 
79499,  ,  ,"195 Ottley Dr., Atlanta , Georgia, 30324"," Tamoyo, Dominican Republic ", Dominican Republic 
99632,47.843333,16.26,"803 Powder Springs Rd., Marietta, Georgia, 30064"," Wiener Neustadt, Austria ", Austria 
22493,34.676389,-90.341666,"100 Marina Dr., St. Simons Island, Georgia, 31522"," Tunica, MS ", United States 
88713,38.890555,-90.184166,"206 Rome St., Carrolton, Georgia, 30117"," Alton, IL ", United States 
36663,35.768056,-103.984166,"3242 Peachtree Rd NE, Atlanta, Georgia, 30305"," Mosquero, NM ", United States 
54626,46.969445,-122.9025,"3852 W. Clinton Ct., Marietta, Georgia, 30062"," Olympia, WA ", United States 
68235,47.774445,-116.819723,"5600 Roswell, Atlanta, Georgia, 30342"," Coeur D'Alene, ID ", United States 
40073,38.917223,-78.252222,"500 10th St. NE, Atlanta, Georgia, 30309"," Front Royal, VA ", United States 
52290,36.926111,-111.433333,"21 W. Bay St., Savannah, Georgia, 31412"," Page, AZ ", United States 
22475,47.616667,-122.266667,"2015 Afond Ct., Atlanta, Georgia, 30341"," Seattle, WA ", United States 
61452,41.251944,-70.056111,"21 W Bay St., Savannah, Georgia, 31401"," Nantucket, MA ", United States 
53871,43.580556,-116.522223,"405 Cordele Rd, Albany, Georgia, 31705"," Nampa, ID ", United States 
93869,38.755,-109.754722,"3333 Buford Drive, Buford, Georgia, 30519"," Moab, UT ", United States 
31387,37.7475,-97.221111,"320 Peachtree Street , Atlanta , Georgia, 30308"," Wichita, KS ", United States 
8229,68.76,-145.334722,"3960 Shirley Drive S.W., Atlanta, Georgia, 30336"," Arctic Village, AK ", United States 
43957,  ,  ,"1564 Holcomb Bridge Rd., Roswell, Georgia, 30075"," Teterboro, NJ ", United States 
81025,  ,  ,"3041 Peachtree Rd. NE, Atlanta, Georgia, 30305"," Teterboro, NJ ", United States 
10342,31.798889,-110.6025,"14 Cherry St, Hampton, Georgia, 30228"," Tucson, AZ ", United States 
119130,40.451667,-105.011111,"191 Jarrett Loop, Adairsville , Georgia, 30103"," Fort Collins, CO ", United States 
49877,41.788889,-75.89,"848 Peachtree St. NE, Atlanta, Georgia, 30308"," Montrose, PA ", United States 
49324,41.506111,-74.258889,"P.O. Box 8239, Atlanta, Georgia, 30306"," Montgomery, NY ", United States 
60275,27.456389,-81.342222,"P.O. Box 29464, Atlanta, Georgia, 30359"," Sebring, FL ", United States 
52082,40.897222,-88.713889,"1222 Logan Circle, Atlanta, Georgia, 30318"," Cooksville, IL ", United States 
107758,28.513889,-91.015278,"359 Clifton Rd. NE, Atlanta, Georgia, 30307"," Houma, TX ", United States 
71587,  ,  ,"19 B East Main St., Dahlonega , Georgia, 30533"," Salt Lake City, UT ", United States 
73094,41.265278,-84.8,"140 E Washington St., Athens, Georgia, 30601"," Hicksville, OH ", United States 
95553,45.295555,-122.955278,"1041 Braodway, Columbus, Georgia, 31901"," Newberg, OR ", United States 
104483,32.826111,-116.9725,"1757 Rock Quarry Road, Stockbridge, Georgia, 30281"," San Diego, CA ", United States 
104897,40.501389,-75.059444,"100 Lexington Circle, Peachtree City, Georgia, 30269"," Frenchtown, NJ ", United States 
53833,55.166667,-115.366667,"872 Buford Highway, Cumming, Georgia, 30041"," Spirit River, Canada ", Canada 
13037,  ,  ,"3655 Old Milton Parkway , Alpharetta , Georgia, 30005"," Zihuatanejo, Mexico ", Mexico 
54986,15.530278,-61.3,"P.O. Box 649, Athens, Georgia, 30603"," Melville Hall, Dominica ", Dominica 
23505,33.805556,-118.343889,"434 Marietta St., Atlanta, Georgia, 30313"," Lomita, CA ", United States 
44741,37.25,-76.5,"1219 Williams St. NW, Atlanta, Georgia, 30309"," Wakefield, VA ", United States 
112372,30.375,-88.576389,"2323 Defoor Hills Rd. NW, Atlanta, Georgia, 30318"," Pascagoula, MS ", United States 
113838,62.535833,-154.001944,"3013 Peachtree Rd., Atlanta, Georgia, 30305"," McGrath, AK ", United States 
113052,42.720834,-82.595555,"312 E. Washington St., Athens, Georgia, 30601"," Marine City, MI ", United States 
62069,41.604722,-82.685277,"100 Busch Dr., Catersville, Georgia, 30120"," Kellys Island, OH ", United States 
123872,47.656944,-122.733056,"1000 Marietta Street, Ste 204, Atlanta, Georgia, 30318"," Silverdale, WA ", United States 
118170,32.815556,-117.139722,"100 Marietta St., Ste. 204, Atlanta, Georgia, 30318"," San Diego, CA ", United States 
71934,26.545277,-82.198611,"5600 Roswell Rd, Atlanta, Georgia, 30342"," Captiva, FL ", United States 
112283,45.559722,-93.608056,"3655 Old Milton Parkway , Alpharetta , Georgia, 30005"," Princeton, MN ", United States 
31461,37.846944,-118.393333,"580 N. Nimitz Highway, Honolulu, HI, Honolulu, Hawaii, 96817"," Benton, CA ", United States 
111274,39.630556,-88.130556,"296 Kupukai Pl., Honolulu, Hawaii, 96825"," Hindsboro, IL ", United States 
90137,43.718334,-96.429167,"Hilo, Hawaii"," Jasper, MN ", United States 
5487,33.974445,-117.636389,"275 E. Kawili St., Hilo, Hawaii, 96720"," Chino, CA ", United States 
110992,48.1,-123.183333,"4405 Honoapiilani Hwy, #217, Lahaina, Maui, Hawaii, 96761"," Sequim, WA ", United States 
50393,59.668611,-153.133611,"910 Honoapiilani Hwy #55, Lahainatown, Maui, Hawaii, 96761"," Pedro Bay, AK ", United States 
80171,61.550833,-149.825,"P.O. Box 486, Kula, Hawaii, 96790"," Big Lake, AK ", United States 
56924,40.978334,-85.195,"75-5629 Kuakini Hwy., Kailua-Kona, Hawaii, 96740"," Fort Wayne, IN ", United States 
107024,43.421945,-88.127778,"101 Ala Moana Blvd., Honolulu, Hawaii, 96813"," West Bend, WI ", United States 
52497,38.308333,-76.561111,"580 N Nimitz Hwy, Honolulu, Hawaii, 96817"," Leonardtown, MD ", United States 
40922,-17.533056,-149.833056,"516 2nd Ave., Twin Falls, Idaho, 83301"," Moorea, French Polynesia ", French Polynesia 
35817,  ,-30.726111,"2124 W. Pullman Rd., Moscow, Idaho, 83843"," Mason County, TX ", United States 
24382,47.656111,-120.056389,"591 4th St. East, Ketchum, Idaho, 83340"," Waterville, WA ", United States 
30503,46.482778,-100.271945,"202 E. 37th St. #13, Boise, Idaho, 83714"," Hazelton, ND ", United States 
125286,47.490277,-122.764722,"705 Fulton, Boise, Idaho, 83702"," Bremerton, WA ", United States 
40195,41.021945,-94.3625,"202 N. Main St., Hailey, Idaho, 83333"," Creston, IA ", United States 
29132,33.166667,-80.35,"804 N. Orchard, Boise, Idaho, 83706"," Ridgeville, SC ", United States 
73526,38.661944,-90.653333,"3019 South Cole Road, Boise, Idaho, 83704"," Chesterfield, MO ", United States 
27085,39.145833,-86.616667,"P.O Box 3791, Ketchum, Idaho, 83340"," Bloomington, IN ", United States 
38072,31.819445,-101.478889,"709 East Park Blvd, Boise, Idaho, 83712"," Garden City, TX ", United States 
125941,60.817223,-161.768334,"615 S 1st Ave, Pocatello , Idaho, 83201"," Bethel, AK ", United States 
6274,33.936944,-84.270834,"220 Cedar St., Sand Point, Idaho, 83864"," Chamblee, GA ", United States 
15661,62.323056,-150.083333,"430 Old Jackson Hwy, Victor, Idaho, 83455"," Talkeetna, AK ", United States 
47330,38.586111,-77.710556,"621 21st St., Lewiston, Idaho, 83501"," Warrenton, VA ", United States 
76908,41.321945,-86.649166,"312 North First Ave., Sand Point, Idaho, 83864"," Knox, IN ", United States 
20699,61.666667,-151.533333,"807 N. 3rd St., McCall, Idaho, 83638"," Skwentna, AK ", United States 
105516,33.218056,-117.351389,"P.O Box 1829, Sand Point, Idaho, 83864"," Oceanside, CA ", United States 
15954,57.051111,-135.340555,"2845 Holly Pl, Idaho Falls, Idaho, 83402"," Sitka, AK ", United States 
90062,44.304444,-121.539166,"2455 Harrison Hollow Blvd., Boise, Idaho, 83702"," Sisters, OR ", United States 
75964,58.666667,-156.633333,"430 Old Jackson Hwy, Victor, Idaho, 83455"," King Salmon, AK ", United States 
49278,41.349444,-71.803333,"704 Arthur, Caldwell, Idaho, 83605"," Westerly, RI ", United States 
77611,35.766667,-115.328334,"315 N. Ross Point Rd., Post Falls, Idaho, 83854"," Jean, NV ", United States 
15635,42.22,-92.031111,"134 Silverwood Way, Eagle, Idaho, 83616"," Vinton, IA ", United States 
39624,46.480556,-122.815,"102 Main Ave. N., Twin Falls, Idaho, 83301"," Toledo, WA ", United States 
88385,38.8725,-120.003333,"209 Lakeside Ave., Couer d'Alene, Idaho, 83814"," S. Lake Tahoe, CA ", United States 
23805,33.459167,-105.453333,"204 N. 2nd St., Coeur D'Alene, Idaho, 83814"," Ruidoso, NM ", United States 
94249,  ,  ,"455 River Pkwy, Idaho Falls, Idaho, 83405"," Sandown, United Kingdom ", United Kingdom 
129860,44.200278,-70.902778,"101 S Andrews St, Salmon, Idaho, 83467"," Lovell, ME ", United States 
49027,38.483333,-78.883333,"30 W 114 Butterfield Rd, Warrenville, Illinois, 60555"," Harrisonburg, VA ", United States 
117434,45.133056,-115.321945,"3216 N Sheffield, Fl 2, Chicago, Illinois, 60657"," Big Creek, ID ", United States 
36119,44.6,-72.25,"105 Hollywood Blvd, South Barrington, Illinois, 60010"," Greensboro, VT ", United States 
108847,42.468889,-122.719167,"200 E. Fifth Ave., Naperville, Illinois, 60563"," Eagle Point, OR ", United States 
6188,43.066389,-83.271945,"717 E Butterfield Rd, Lombard, Illinois, 60148"," Lapeer, MI ", United States 
112196,46.800278,-116.166667,"306 W State St, Geneva, Illinois, 60134"," Elk River, ID ", United States 
128755,32.329723,-96.663889,"P.O. Box 249, Clarendon Hills, Illinois, 60514"," Ennis, TX ", United States 
20202,39.830556,-86.294166,"P.O. Box 282, Hennepin, Illinois, 61327"," Brownsburg, IN ", United States 
94882,27.456389,-81.342222,"3445 N. Elaine Pl., Chicago, Illinois, 60657"," Sebring, FL ", United States 
105189,47.695277,-114.185277,"1 W. Grand Ave., Chicago, Illinois, 60610"," Polson, MT ", United States 
3683,54.263333,-2.678334,"94 Yorktown Center, Lombard, Illinois, 60148"," Lancastershire, United Kingdom ", United Kingdom 
59771,  ,  ,"28256 Diehl Rd, Warrenville, Illinois, 60555"," Eket, Nigeria ", Nigeria 
94669,  ,  ,"127 N Belt East, Swansea, Illinois, 62226"," Madrid, Spain ", Spain 
110029,  ,  ,"P.O. Box 10437, Chicago, Illinois, 60610"," Panama City, Panama ", Panama 
101614,47.184444,-121.241944,"925 W. Chicago Ave., Chicago, Illinois, 60622"," Easton, WA ", United States 
91499,  ,  ,"P O Box 471534, Chicago, Illinois, 60647"," Overly, ND ", United States 
49265,  ,  ,"700 N Milwaukee Ave, Wheeling, Illinois, 60090"," Hampton, IA ", United States 
26940,46.721945,-92.043333,"1901 McConnor Pkwy, Schaumburg, Illinois, 60173"," Duluth, MN ", United States 
70422,46.801667,-100.679167,"127 S. Grove, Elgin, Illinois, 60120"," Bismark, ND ", United States 
53072,68.687777,-151.880834,"1927 W North Ave., Chicago, Illinois, 60622"," Anaktuvuk Pass, AK ", United States 
24772,34.458611,-120.055,"Chicago, Illinois"," Goleta, CA ", United States 
69268,38.993889,-99.595277,"383 Romans Rd., Elmhurst, Illinois, 60126"," Sylvan Grove, KS ", United States 
45409,39.908889,-105.117223,"9014 Heritage Pkway, Ste 308, Woodridge, Illinois, 60517"," Broomfield, CO ", United States 
106509,32.196944,-84.141666,"22221 N Pepper Rd., Lake Barrington, Illinois, 60010"," Andersonville, GA ", United States 
86905,26.197222,-80.170556,"415 Hampshire St., Quincy, Illinois, 62301"," Fort Lauderdale, FL ", United States 
126448,34.013056,-84.596944,"372 E. Golf Rd., Arlington Heights, Illinois, 60605"," Kennesaw, GA ", United States 
11604,62.255833,-149.900278,"1711 W. Hwy. 50, O'Fallon, Illinois, 62269"," Talkeetna, AK ", United States 
76118,46.966667,-122.9,"RR 4 Box 2798, West Frankfurt, Illinois, 62896"," Olympia, WA ", United States 
126508,48.833889,-125.204722,"45 S. Barrington Rd., South Barrington, Illinois, 60010"," Victoria, Canada ", Canada 
97029,4.133333,-73.666667,"412 N. Milwaukee Ave., Libertyville, Illinois, 60048"," Puerto Concord, Colombia ", Colombia 
48727,-37.356389,145.098611,"Chicago, Illinois"," Melbourne, VIC, Australia ", Australia 
60235,39.375556,-78.307222,"5121 N Ravenswood Ave, Chicago, Illinois, 60640"," Winchester, VA ", United States 
4278,38.816667,-92.216667,"98 W Main St, West Dundee, Illinois, 60118"," Columbia, MO ", United States 
129841,40.000833,-105.034722,"54 E St Charles Rd, Villa Park, Illinois, 60181"," Erie, CO ", United States 
33126,41.076389,-71.920556,"412 N. Milwaukee Ave., Libertyville, Illinois, 60048"," Montauk, NY ", United States 
51916,61.203056,-159.844444,"300 N. Main St., Galena, Illinois, 61036"," Anchorage, AK ", United States 
6667,37.095277,-113.599444,"8609 Hwy 12, Richmond, Illinois, 60071"," St. George, UT ", United States 
123198,44.820278,-114.421111,"619A Water St., Peoria, Illinois, 61602"," Challis, ID ", United States 
63650,30.5375,-96.524167,"706 S. Fifth St., Champaign, Illinois, 61820"," Garwood, TX ", United States 
7757,36.989722,-91.954167,"1711 W. Hwy. 50, O'Fallon, Illinois, 62269"," Willow Springs, MO ", United States 
91112,42.404722,-88.380556,"102 N Center St.,  #111, Bloomington, Illinois, 61701"," Greenwood, IL ", United States 
17321,44.2625,-102.526945,"15845 La Grange Rd, Orland Park, Illinois, 60462"," Elm Springs, SD ", United States 
48958,32.646111,-96.995833,"4257 N. Lincoln Ave., Chicago, Illinois, 60618"," Grand Prairie, TX ", United States 
98244,45.878056,-111.569167,"7144 Harrison Ave., Ste. 108, Cherry Valley, Illinois, 61112"," Three Forks, MT ", United States 
42260,52.5,-8.833333,"220 N Randall Rd, Lake in the Hills, Illinois, 60156"," Ardfert, Ireland ", Ireland 
15496,42.503056,-83.623611,"639 E. Boughton Rd., Ste. 100, Bolingbrook, Illinois, 60440"," New Hudson, MI ", United States 
43188,27.953056,-80.559722,"3535 N Clark St, Chicago, Illinois, 60657"," Valkaria, FL ", United States 
78190,34.085277,-117.145555,"1800 W. Fulton, Chicago, Illinois, 60612"," Redlands, CA ", United States 
18621,47.825,-92.695277,"1800 N. Clybourn, Chicago, Illinois, 60614"," Cook, MN ", United States 
38896,43.605556,-113.334722,"2536 N. Elston Ave., Chicago, Illinois, 60647"," Arco, ID ", United States 
45223,56.851111,53.159167,"433 N. Main St., Glen Ellyn, Illinois, 60137"," Izhevsk, Russia ", Russia 
36798,45.342223,-88.538055,"300 N. Main St., Galena, Illinois, 61036"," Lakewood, WI ", United States 
78687,34.241944,-90.273056,"404 S Dodge St, Galena, Illinois, ???"," Marks, MS ", United States 
110051,48.724723,-119.465556,"5200 Main St., Downers Grove, Illinois, 60515"," Tonasket, WA ", United States 
25848,36.6925,-76.603333,"1035 Sterling Ave., Flossmoor, Illinois, 60422"," Suffolk, VA ", United States 
53234,45.359444,-122.611667,"200 Village Green, Lincolnshire, Illinois, 60069"," West Linn, OR ", United States 
73548,39.904167,-84.221389,"1301 W. Lloyd Expwy., Evansville, Illinois, 47710"," Dayton, OH ", United States 
73085,33.166111,-116.951944,"128 W Main St., West Dundee, Illinois, 60118"," Ramona, CA ", United States 
68153,42.629167,-74.890833,"5200 Main St., Downers Grove, Illinois, 60515"," Cooperstown, NY ", United States 
120499,43.9675,-88.556667,"P.O. Box 57, Elmwood, Illinois, 61529"," Oshkosh, WI ", United States 
86286,43.9675,-88.556667,"1444 W Hollywood Ave, Chicago, Illinois, 60660"," Oshkosh, WI ", United States 
92452,33.491111,-112.0675,"318 S Towanda Ave, Normal, Illinois, 61761"," Phoenix, AZ ", United States 
80419,41.627778,-74.133611,"700 E. Grand, Carbondale, Illinois, 62901"," Wallkill, NY ", United States 
56744,38.881945,-83.882778,"1830 N. Besly Ct., Chicago, Illinois, 60622"," Georgetown, OH ", United States 
58845,36.391111,-93.629723,"215 E State St., Rockford, Illinois, 61104"," Berryville, AR ", United States 
35204,33.491111,-112.0675,"107 W. Cook St., Springfield, Illinois, 62704"," Phoenix, AZ ", United States 
67010,29.506667,-81.34,"110 N Brockway St, Palatine, Illinois, 60067"," Orlando, FL ", United States 
106606,42.703056,-87.958889,"425 15th St., Moline, Illinois, 61265"," Sturtevant, WI ", United States 
117009,38.784166,-93.802778,"665 W North Ave Ste 500, Lombard, Illinois, ?"," Warrensburg, MO ", United States 
10659,37.201389,-84.593611,"145 N. 3rd St., DeKalb, Illinois, 60115"," Science Hill, KY ", United States 
9724,39.123334,-94.591944,"113 18th St., Rock Island, Illinois, 61201"," Kansas City, MO ", United States 
65056,40.819723,-72.866667,"10448 South Seeley Ave, Chicago, Illinois, 60643"," Shirley, NY ", United States 
22381,41.526111,-71.275556,"1413 5th Ave, Moline, Illinois, 61265"," Newport, RI ", United States 
84932,30.953333,-85.421667,"205 N. Broadway, Aurora, Illinois, 60505"," Campbellton, FL ", United States 
58816,33.974445,-117.636389,"2314 Nautilus Cove, Fort Wayne, Indiana, 46814"," Chino, CA ", United States 
29077,39.125834,-108.533334,"350 W. 11th St., Bloomington, Indiana, 47404"," Grand Junction, CO ", United States 
74031,  ,  ,"9750 Indiana Pkwy, Munster, Indiana, 46321"," Lillo, Spain ", Spain 
116208,18.450556,-66.671945,"P.O. Box 2027, Terre Haute, Indiana, 47802"," Arecibo, PR ", United States 
80494,45.175,-115.721111,"135 N College Ave, Indianapolis, Indiana, 46202"," McCall, ID ", United States 
1489,44.411111,-108.163333,"208 Wabash St., Michigan City, Indiana, 46360"," Basin, WY ", United States 
53230,30.642777,-93.850278,"10 W. Washington St., Indianapolis, Indiana, 46204"," Kirbyville, TX ", United States 
47141,40.203889,-75.43,"140 S Illinois St., Indianapolis, Indiana, 46204"," Collegeville, PA ", United States 
36015,37.044166,-76.768056,"322  Fourth St., Columbus, Indiana, 47201"," Surry, VA ", United States 
62074,38.538055,-106.048611,"50 N. Airport Pkwy. Ste. L, Greenwood, Indiana, 46143"," Salida, CO ", United States 
75734,38.123056,-90.2375,"3312 Plaza Dr., New Albany, Indiana, 47150"," Columbia, IL ", United States 
31498,44.837222,-117.808889,"2414 Lowell Street, Elkhart , Indiana, 46516"," Baker City, OR ", United States 
18036,44.898611,-116.105,"3703 N. Main St., Mishawaka, Indiana, 46545"," McCall, ID ", United States 
14781,43.573611,-116.226945,"412 N. Main St., Evansville, Indiana, 47711"," Boise, ID ", United States 
91784,42.392777,-77.189444,"2002 Broadway, Fort Wayne, Indiana, 46802"," Hammondsport, NY ", United States 
117339,55.551389,-130.685555,"329 Main Street, Evansville, Indiana, 47708"," Ketchikan, AK ", United States 
18566,43.984444,-88.556944,"622 Main St., Lafayette, Indiana, 47901"," Oshkosh, WI ", United States 
54914,47.591111,-113.299444,"3250 N. Post Rd., Indianapolis, Indiana, 46226"," Kalispell, MT ", United States 
78089,41.640555,-123.276945,"4051 S LaFountain, Kokomo, Indiana, 46902"," Happy Camp, CA ", United States 
89153,  ,  ,"18283 Horizon Way, Lawrenceburg, Indiana, 47025"," Indian Ocean, Unknown ", Unknown 
116444,47.583333,7.583333,"150 W 96th St, Carmel, Indiana, 46290"," Basel, Switzerland ", Switzerland 
92504,44.912222,-115.485555,"2020 Florida Dr., Fort Wayne, Indiana, 46805"," Yellow Pine, ID ", United States 
35145,36.1425,-90.836666,"8310 Craig St., Indianapolis, Indiana, 46250"," Walnut Ridge, AR ", United States 
93708,29.300556,-81.113611,"401 South 9th Street, Terre Haute, Indiana, 48707"," Ormond Beach, FL ", United States 
15307,34.452778,-110.114722,"1011A-E Westfield Blvd., Indianapolis, Indiana, 46220"," Taylor, AZ ", United States 
8194,41.666667,-90.083333,"840 E. 65th St., Indianapolis, Indiana, 46220"," Prophetstown, IL ", United States 
10311,36.848333,-76.688055,"1795 E. 10th, Bloomington, Indiana, 47407"," Windsor, VA ", United States 
47781,47.791111,-99.931667,"P.O. Box 515, Brazil, Indiana, 47834"," Harvey, ND ", United States 
25090,41.933611,-85.0525,"639 Conner St, Noblesville, Indiana, 46060"," Coldwater, MI ", United States 
80225,43.774167,-88.491666,"1315 Michigan Ave., LaPorte, Indiana, 46350"," Fond Du Lac, WI ", United States 
36251,40.599166,-116.874445,"49 W. Maryland St.104, Indianapolis, Indiana, 46204"," Battle Mountain, NV ", United States 
32424,41.448333,-90.508333,"8845 Quail Lane, Manhattan, Kansas, 66502"," Moline, IL ", United States 
97427,41.2,-74.620278,"12 East Main, Chanute, Kansas, 66720"," Sussex, NJ ", United States 
